PowerWatch ID,Name,Fuel,Capacity (MW),Location,Plant type,Commissioning Year,Units,Owner,Annual Generation (GWh),Other,Source,URL,Efficiency,Fuel Consumption (gm/kWh),Peak Load MW,Load Factor,Capacity Factor,Availability,Status,Country,Grid Balancing Area,Latitude,Longitude,Secondary Fuel,Address,Town,Postal Code,Cooling Type,Cooling Source,Grid Connection,Natural_Language,CO2_annual_reported,CO2_tCO2/MWh
1023933,Cestas,Solar,301.36417,Cestas,PV,,,,,,Open Power System Data,http://data.open-power-system-data.org/renewable_power_plants/2016-10-21/,,,,,,,Operating,France,,44.724162,-0.815041,,,,,,,,,,
1023934,Les Mées,Solar,95.31534,Les Mées,PV,,,,,,Open Power System Data,http://data.open-power-system-data.org/renewable_power_plants/2016-10-21/,,,,,,,Operating,France,,44.015,6.016763,,,,,,,,,,
1023935,Salles-Curan,Wind,87,Salles-Curan,Onshore Wind,,,,,,Open Power System Data,http://data.open-power-system-data.org/renewable_power_plants/2016-10-21/,,,,,,,Operating,France,,44.159715,2.829884,,,,,,,,,,
1023936,Épizon,Wind,80,Épizon,Onshore Wind,,,,,,Open Power System Data,http://data.open-power-system-data.org/renewable_power_plants/2016-10-21/,,,,,,,Operating,France,,48.3735,5.322164,,,,,,,,,,
1023937,Rosières-en-Haye,Solar,78.933,Rosières-en-Haye,PV,,,,,,Open Power System Data,http://data.open-power-system-data.org/renewable_power_plants/2016-10-21/,,,,,,,Operating,France,,48.7867,5.978947,,,,,,,,,,
1023938,Germinon,Wind,75,Germinon,Onshore Wind,,,,,,Open Power System Data,http://data.open-power-system-data.org/renewable_power_plants/2016-10-21/,,,,,,,Operating,France,,48.8867,4.17862,,,,,,,,,,
1023939,Losse,Solar,67.64936,Losse,PV,,,,,,Open Power System Data,http://data.open-power-system-data.org/renewable_power_plants/2016-10-21/,,,,,,,Operating,France,,44.058258,-0.012998,,,,,,,,,,
1023940,Paris,Biomass,64,Paris,,,,,,,Open Power System Data,http://data.open-power-system-data.org/renewable_power_plants/2016-10-21/,,,,,,,Operating,France,,,,,,,,,,,,,
1023941,Cormainville,Wind,60,Cormainville,Onshore Wind,,,,,,Open Power System Data,http://data.open-power-system-data.org/renewable_power_plants/2016-10-21/,,,,,,,Operating,France,,48.120655,1.615964,,,,,,,,,,
1023942,Murat-sur-Vèbre,Wind,59.1,Murat-sur-Vèbre,Onshore Wind,,,,,,Open Power System Data,http://data.open-power-system-data.org/renewable_power_plants/2016-10-21/,,,,,,,Operating,France,,43.658787,2.87086,,,,,,,,,,
1023943,Massangis,Solar,56.03591,Massangis,PV,,,,,,Open Power System Data,http://data.open-power-system-data.org/renewable_power_plants/2016-10-21/,,,,,,,Operating,France,,47.6087,4.011181,,,,,,,,,,
1023944,Villesèque-des-Corbières,Wind,55.31,Villesèque-des-Corbières,Onshore Wind,,,,,,Open Power System Data,http://data.open-power-system-data.org/renewable_power_plants/2016-10-21/,,,,,,,Operating,France,,43.019269,2.869558,,,,,,,,,,
1023945,Issy-les-Moulineaux,Biomass,55,Issy-les-Moulineaux,,,,,,,Open Power System Data,http://data.open-power-system-data.org/renewable_power_plants/2016-10-21/,,,,,,,Operating,France,,48.8231,2.26446,,,,,,,,,,
1023946,Allonnes,Wind,52.275,Allonnes,Onshore Wind,,,,,,Open Power System Data,http://data.open-power-system-data.org/renewable_power_plants/2016-10-21/,,,,,,,Operating,France,,48.34071,1.676023,,,,,,,,,,
1023947,Arsac,Solar,48.23768,Arsac,PV,,,,,,Open Power System Data,http://data.open-power-system-data.org/renewable_power_plants/2016-10-21/,,,,,,,Operating,France,,44.9837,-0.74466,,,,,,,,,,
1023948,Gourgançon,Wind,48,Gourgançon,Onshore Wind,,,,,,Open Power System Data,http://data.open-power-system-data.org/renewable_power_plants/2016-10-21/,,,,,,,Operating,France,,48.667436,4.0369212,,,,,,,,,,
1023949,Saint-Georges-sur-Arnon,Wind,46,Saint-Georges-sur-Arnon,Onshore Wind,,,,,,Open Power System Data,http://data.open-power-system-data.org/renewable_power_plants/2016-10-21/,,,,,,,Operating,France,,46.982325,2.073409,,,,,,,,,,
1023950,Fruges,Wind,43.1,Fruges,Onshore Wind,,,,,,Open Power System Data,http://data.open-power-system-data.org/renewable_power_plants/2016-10-21/,,,,,,,Operating,France,,50.509881,2.06774,,,,,,,,,,
1023951,Fos-sur-Mer,Biomass,40.462,Fos-sur-Mer,,,,,,,Open Power System Data,http://data.open-power-system-data.org/renewable_power_plants/2016-10-21/,,,,,,,Operating,France,,43.453368,4.899504,,,,,,,,,,
1023952,Gueschart,Wind,38,Gueschart,Onshore Wind,,,,,,Open Power System Data,http://data.open-power-system-data.org/renewable_power_plants/2016-10-21/,,,,,,,Operating,France,,50.238765,1.988612,,,,,,,,,,
1023953,Les Grandes-Chapelles,Wind,36.3,Les Grandes-Chapelles,Onshore Wind,,,,,,Open Power System Data,http://data.open-power-system-data.org/renewable_power_plants/2016-10-21/,,,,,,,Operating,France,,48.48374,4.008744,,,,,,,,,,
1023954,Jaillon,Solar,36.00882,Jaillon,PV,,,,,,Open Power System Data,http://data.open-power-system-data.org/renewable_power_plants/2016-10-21/,,,,,,,Operating,France,,48.783716,5.977778,,,,,,,,,,
1023957,Aumelas,Wind,36,Aumelas,Onshore Wind,,,,,,Open Power System Data,http://data.open-power-system-data.org/renewable_power_plants/2016-10-21/,,,,,,,Operating,France,,43.531946,3.613251,,,,,,,,,,
1023958,Tournoisis,Wind,36,Tournoisis,Onshore Wind,,,,,,Open Power System Data,http://data.open-power-system-data.org/renewable_power_plants/2016-10-21/,,,,,,,Operating,France,,48.00086,1.603439,,,,,,,,,,
1023956,Louville-la-Chenard,Wind,36,Louville-la-Chenard,Onshore Wind,,,,,,Open Power System Data,http://data.open-power-system-data.org/renewable_power_plants/2016-10-21/,,,,,,,Operating,France,,48.335835,1.791133,,,,,,,,,,
1023955,Champfleury,Wind,36,Champfleury,Onshore Wind,,,,,,Open Power System Data,http://data.open-power-system-data.org/renewable_power_plants/2016-10-21/,,,,,,,Operating,France,,48.629871,4.039063,,,,,,,,,,
1023959,Poinville,Wind,35.75,Poinville,Onshore Wind,,,,,Reunion,Open Power System Data,http://data.open-power-system-data.org/renewable_power_plants/2016-10-21/,,,,,,,Operating,France,,48.174614,1.909884,,,,,,,,,,
1023960,Saint-Pierre,Solar,35.47104,Saint-Pierre,PV,,,,,,Open Power System Data,http://data.open-power-system-data.org/renewable_power_plants/2016-10-21/,,,,,,,Operating,France,,-21.319353,55.440012,,,,,,,,,,
1023961,Istres,Solar,35.36262,Istres,PV,,,,,,Open Power System Data,http://data.open-power-system-data.org/renewable_power_plants/2016-10-21/,,,,,,,Operating,France,,43.584232,4.916104,,,,,,,,,,
1023963,Ortillon,Wind,35,Ortillon,Onshore Wind,,,,,,Open Power System Data,http://data.open-power-system-data.org/renewable_power_plants/2016-10-21/,,,,,,,Operating,France,,48.493143,4.233531,,,,,,,,,,
1023962,Allibaudières,Wind,35,Allibaudières,Onshore Wind,,,,,,Open Power System Data,http://data.open-power-system-data.org/renewable_power_plants/2016-10-21/,,,,,,,Operating,France,,48.607077,4.14835,,,,,,,,,,
1023964,Lüe,Solar,34.7483,Lüe,PV,,,,,,Open Power System Data,http://data.open-power-system-data.org/renewable_power_plants/2016-10-21/,,,,,,,Operating,France,,44.276569,-0.996122,,,,,,,,,,
1023965,Saint-Gor,Solar,34.73361,Saint-Gor,PV,,,,,,Open Power System Data,http://data.open-power-system-data.org/renewable_power_plants/2016-10-21/,,,,,,,Operating,France,,44.062478,-0.248289,,,,,,,,,,
1023966,Quesnoy-sur-Airaines,Wind,34.5,Quesnoy-sur-Airaines,Onshore Wind,,,,,,Open Power System Data,http://data.open-power-system-data.org/renewable_power_plants/2016-10-21/,,,,,,,Operating,France,,49.93585,1.996124,,,,,,,,,,
1023967,Vitry-la-Ville,Wind,34,Vitry-la-Ville,Onshore Wind,,,,,,Open Power System Data,http://data.open-power-system-data.org/renewable_power_plants/2016-10-21/,,,,,,,Operating,France,,48.824908,4.401498,,,,,,,,,,
1023968,Roye,Wind,34,Roye,Onshore Wind,,,,,,Open Power System Data,http://data.open-power-system-data.org/renewable_power_plants/2016-10-21/,,,,,,,Operating,France,,49.672706,2.79269,,,,,,,,,,
1023969,Pompogne,Solar,32.5236,Pompogne,PV,,,,,,Open Power System Data,http://data.open-power-system-data.org/renewable_power_plants/2016-10-21/,,,,,,,Operating,France,,44.200169,0.124266,,,,,,,,,,
1023970,Rion-des-Landes,Solar,31.74212,Rion-des-Landes,PV,,,,,,Open Power System Data,http://data.open-power-system-data.org/renewable_power_plants/2016-10-21/,,,,,,,Operating,France,,43.938801,-0.951464,,,,,,,,,,
1023971,Ally,Wind,31.5,Ally,Onshore Wind,,,,,,Open Power System Data,http://data.open-power-system-data.org/renewable_power_plants/2016-10-21/,,,,,,,Operating,France,,45.173325,3.300933,,,,,,,,,,
1023972,Fauquembergues,Wind,31.35,Fauquembergues,Onshore Wind,,,,,,Open Power System Data,http://data.open-power-system-data.org/renewable_power_plants/2016-10-21/,,,,,,,Operating,France,,50.582426,2.111336,,,,,,,,,,
1023973,Castelnau-Pégayrols,Wind,30.81,Castelnau-Pégayrols,Onshore Wind,,,,,,Open Power System Data,http://data.open-power-system-data.org/renewable_power_plants/2016-10-21/,,,,,,,Operating,France,,44.165894,2.900811,,,,,,,,,,
1023974,Boulay-Moselle,Wind,30.5,Boulay-Moselle,Onshore Wind,,,,,,Open Power System Data,http://data.open-power-system-data.org/renewable_power_plants/2016-10-21/,,,,,,,Operating,France,,49.180308,6.519128,,,,,,,,,,
1023975,Charmont-en-Beauce,Wind,30,Charmont-en-Beauce,Onshore Wind,,,,,,Open Power System Data,http://data.open-power-system-data.org/renewable_power_plants/2016-10-21/,,,,,,,Operating,France,,48.223227,2.145757,,,,,,,,,,
1023976,Cambon-et-Salvergues,Wind,29.9,Cambon-et-Salvergues,Onshore Wind,,,,,,Open Power System Data,http://data.open-power-system-data.org/renewable_power_plants/2016-10-21/,,,,,,,Operating,France,,43.653626,2.878204,,,,,,,,,,
1023977,Cernon,Wind,28.9,Cernon,Onshore Wind,,,,,,Open Power System Data,http://data.open-power-system-data.org/renewable_power_plants/2016-10-21/,,,,,,,Operating,France,,48.846173,4.362588,,,,,,,,,,
1023978,Le Val-d'Esnoms,Wind,28,Le Val-d'Esnoms,Onshore Wind,,,,,,Open Power System Data,http://data.open-power-system-data.org/renewable_power_plants/2016-10-21/,,,,,,,Operating,France,,47.702915,5.19761,,,,,,,,,,
1023979,Gommerville,Wind,27.85,Gommerville,Onshore Wind,,,,,,Open Power System Data,http://data.open-power-system-data.org/renewable_power_plants/2016-10-21/,,,,,,,Operating,France,,48.378829,1.8827,,,,,,,,,,
1023981,Luc-sur-Orbieu,Wind,27.5,Luc-sur-Orbieu,Onshore Wind,,,,,,Open Power System Data,http://data.open-power-system-data.org/renewable_power_plants/2016-10-21/,,,,,,,Operating,France,,43.174633,2.80971,,,,,,,,,,
1023982,Euvy,Wind,27.5,Euvy,Onshore Wind,,,,,,Open Power System Data,http://data.open-power-system-data.org/renewable_power_plants/2016-10-21/,,,,,,,Operating,France,,48.725145,3.993517,,,,,,,,,,
1023980,Champlin,Wind,27.5,Champlin,Onshore Wind,,,,,,Open Power System Data,http://data.open-power-system-data.org/renewable_power_plants/2016-10-21/,,,,,,,Operating,France,,49.83199,4.297885,,,,,,,,,,
1023983,Kergrist-Moëlou,Wind,27.3,Kergrist-Moëlou,Onshore Wind,,,,,,Open Power System Data,http://data.open-power-system-data.org/renewable_power_plants/2016-10-21/,,,,,,,Operating,France,,48.277266,-3.332979,,,,,,,,,,
1023984,Curbans,Solar,26.36344,Curbans,PV,,,,,,Open Power System Data,http://data.open-power-system-data.org/renewable_power_plants/2016-10-21/,,,,,,,Operating,France,,44.41097,6.036832,,,,,,,,,,
1023986,Rageade,Wind,26,Rageade,Onshore Wind,,,,,,Open Power System Data,http://data.open-power-system-data.org/renewable_power_plants/2016-10-21/,,,,,,,Operating,France,,45.148077,3.292037,,,,,,,,,,
1023985,Saint-Loup-en-Champagne,Wind,26,Saint-Loup-en-Champagne,Onshore Wind,,,,,,Open Power System Data,http://data.open-power-system-data.org/renewable_power_plants/2016-10-21/,,,,,,,Operating,France,,49.450546,4.268401,,,,,,,,,,
1023987,Vadelaincourt,Wind,26,Vadelaincourt,Onshore Wind,,X,,,,Open Power System Data,http://data.open-power-system-data.org/renewable_power_plants/2016-10-21/,,,,,,,Operating,France,,,,,,,,,,,,,
1023988,Perpignan,Solar,25.62634,Perpignan,PV,,,,,,Open Power System Data,http://data.open-power-system-data.org/renewable_power_plants/2016-10-21/,,,,,,,Operating,France,,42.712446,2.933266,,,,,,,,,,
1023989,Castets,Solar,25.05259,Castets,PV,,,,,,Open Power System Data,http://data.open-power-system-data.org/renewable_power_plants/2016-10-21/,,,,,,,Operating,France,,43.8743,-1.14504,,,,,,,,,,
1023991,Greneville-en-Beauce,Wind,25,Greneville-en-Beauce,Onshore Wind,,,,,,Open Power System Data,http://data.open-power-system-data.org/renewable_power_plants/2016-10-21/,,,,,,,Operating,France,,48.1892,2.11033,,,,,,,,,,
1023990,Hauteville,Wind,25,Hauteville,Onshore Wind,,,,,,Open Power System Data,http://data.open-power-system-data.org/renewable_power_plants/2016-10-21/,,,,,,,Operating,France,,49.8888,3.52363,,,,,,,,,,
1023992,Longueville-sur-Aube,Wind,24.8,Longueville-sur-Aube,Onshore Wind,,,,,,Open Power System Data,http://data.open-power-system-data.org/renewable_power_plants/2016-10-21/,,,,,,,Operating,France,,48.5513,3.91325,,,,,,,,,,
1023993,Rumont,Wind,24.6,Rumont,Onshore Wind,,,,,,Open Power System Data,http://data.open-power-system-data.org/renewable_power_plants/2016-10-21/,,,,,,,Operating,France,,48.8297,5.27124,,,,,,,,,,
1023994,Callengeville,Wind,24.5,Callengeville,Onshore Wind,,,,,,Open Power System Data,http://data.open-power-system-data.org/renewable_power_plants/2016-10-21/,,,,,,,Operating,France,,49.8242,1.52192,,,,,,,,,,
1023995,Poinson-lès-Nogent,Wind,24.3,Poinson-lès-Nogent,Onshore Wind,,,,,,Open Power System Data,http://data.open-power-system-data.org/renewable_power_plants/2016-10-21/,,,,,,,Operating,France,,47.9915,5.38024,,,,,,,,,,
1023996,Maillebois,Solar,24.0446,Maillebois,PV,,,,,,Open Power System Data,http://data.open-power-system-data.org/renewable_power_plants/2016-10-21/,,,,,,,Operating,France,,48.632,1.14966,,,,,,,,,,
1023997,Néoules,Solar,24.0245,Néoules,PV,,,,,,Open Power System Data,http://data.open-power-system-data.org/renewable_power_plants/2016-10-21/,,,,,,,Operating,France,,43.2946,6.02607,,,,,,,,,,
1023998,Crucey-Villages,Solar,24.02204,Crucey-Villages,PV,,,,,,Open Power System Data,http://data.open-power-system-data.org/renewable_power_plants/2016-10-21/,,,,,,,Operating,France,,48.6683,1.10639,,,,,,,,,,
1024004,Allanche,Wind,24,Allanche,Onshore Wind,,,,,,Open Power System Data,http://data.open-power-system-data.org/renewable_power_plants/2016-10-21/,,,,,,,Operating,France,,45.2312,2.95349,,,,,,,,,,
1024015,Saint-Pierre-de-Maillé,Wind,24,Saint-Pierre-de-Maillé,Onshore Wind,,,,,,Open Power System Data,http://data.open-power-system-data.org/renewable_power_plants/2016-10-21/,,,,,,,Operating,France,,46.6777,0.82508,,,,,,,,,,
1024005,Mareuil-sur-Arnon,Wind,24,Mareuil-sur-Arnon,Onshore Wind,,,,,,Open Power System Data,http://data.open-power-system-data.org/renewable_power_plants/2016-10-21/,,,,,,,Operating,France,,46.8788,2.16328,,,,,,,,,,
1024007,Ménétréols-sous-Vatan,Wind,24,Ménétréols-sous-Vatan,Onshore Wind,,,,,,Open Power System Data,http://data.open-power-system-data.org/renewable_power_plants/2016-10-21/,,,,,,,Operating,France,,47.0089,1.83561,,,,,,,,,,
1024006,Neuvy-en-Dunois,Wind,24,Neuvy-en-Dunois,Onshore Wind,,,,,,Open Power System Data,http://data.open-power-system-data.org/renewable_power_plants/2016-10-21/,,,,,,,Operating,France,,48.2026,1.53576,,,,,,,,,,
1024002,Charmont-sous-Barbuise,Wind,24,Charmont-sous-Barbuise,Onshore Wind,,,,,,Open Power System Data,http://data.open-power-system-data.org/renewable_power_plants/2016-10-21/,,,,,,,Operating,France,,48.4155,4.18124,,,,,,,,,,
1024001,Chapelle-Vallon,Wind,24,Chapelle-Vallon,Onshore Wind,,,,,,Open Power System Data,http://data.open-power-system-data.org/renewable_power_plants/2016-10-21/,,,,,,,Operating,France,,48.4344,4.04245,,,,,,,,,,
1024008,Bonnet,Wind,24,Bonnet,Onshore Wind,,,,,,Open Power System Data,http://data.open-power-system-data.org/renewable_power_plants/2016-10-21/,,,,,,,Operating,France,,48.533505,5.410033,,,,,,,,,,
1024009,Delouze-Rosières,Wind,24,Delouze-Rosières,Onshore Wind,,,,,,Open Power System Data,http://data.open-power-system-data.org/renewable_power_plants/2016-10-21/,,,,,,,Operating,France,,48.5658,5.53147,,,,,,,,,,
1024003,Lhuître,Wind,24,Lhuître,Onshore Wind,,,,,,Open Power System Data,http://data.open-power-system-data.org/renewable_power_plants/2016-10-21/,,,,,,,Operating,France,,48.5808,4.27394,,,,,,,,,,
1024011,Rémérangles,Wind,24,Rémérangles,Onshore Wind,,,,,,Open Power System Data,http://data.open-power-system-data.org/renewable_power_plants/2016-10-21/,,,,,,,Operating,France,,49.4485,2.29114,,,,,,,,,,
1024000,Le Thour,Wind,24,Le Thour,Onshore Wind,,,,,,Open Power System Data,http://data.open-power-system-data.org/renewable_power_plants/2016-10-21/,,,,,,,Operating,France,,49.5455,4.09081,,,,,,,,,,
1024010,Lihus,Wind,24,Lihus,Onshore Wind,,,,,,Open Power System Data,http://data.open-power-system-data.org/renewable_power_plants/2016-10-21/,,,,,,,Operating,France,,49.6045,2.03873,,,,,,,,,,
1023999,Iron,Wind,24,Iron,Onshore Wind,,,,,,Open Power System Data,http://data.open-power-system-data.org/renewable_power_plants/2016-10-21/,,,,,,,Operating,France,,49.9509,3.66449,,,,,,,,,,
1024013,Maisnières,Wind,24,Maisnières,Onshore Wind,,,,,,Open Power System Data,http://data.open-power-system-data.org/renewable_power_plants/2016-10-21/,,,,,,,Operating,France,,50.015,1.60908,,,,,,,,,,
1024014,Nibas,Wind,24,Nibas,Onshore Wind,,,,,,Open Power System Data,http://data.open-power-system-data.org/renewable_power_plants/2016-10-21/,,,,,,,Operating,France,,50.0945,1.58842,,,,,,,,,,
1024012,Penin,Wind,24,Penin,Onshore Wind,,,,,,Open Power System Data,http://data.open-power-system-data.org/renewable_power_plants/2016-10-21/,,,,,,,Operating,France,,50.3306,2.48827,,,,,,,,,,
1024016,Saint-Symphorien,Solar,23.97962,Saint-Symphorien,PV,,,,,,Open Power System Data,http://data.open-power-system-data.org/renewable_power_plants/2016-10-21/,,,,,,,Operating,France,,44.460913,-0.0564968,,,,,,,,,,
1024017,Fressenneville,Wind,23.92,Fressenneville,Onshore Wind,,,,,,Open Power System Data,http://data.open-power-system-data.org/renewable_power_plants/2016-10-21/,,,,,,,Operating,France,,50.0609,1.56666,,,,,,,,,,
1024018,Saint-Aubin-sur-Aire,Wind,23.7,Saint-Aubin-sur-Aire,Onshore Wind,,,,,,Open Power System Data,http://data.open-power-system-data.org/renewable_power_plants/2016-10-21/,,,,,,,Operating,France,,48.7149,5.44667,,,,,,,,,,
1024019,Moisy,Wind,23.65,Moisy,Onshore Wind,,,,,,Open Power System Data,http://data.open-power-system-data.org/renewable_power_plants/2016-10-21/,,,,,,,Operating,France,,47.9183,1.31848,,,,,,,,,,
1024020,Hostens,Solar,23.31344,Hostens,PV,,,,,,Open Power System Data,http://data.open-power-system-data.org/renewable_power_plants/2016-10-21/,,,,,,,Operating,France,,44.4849,-0.65659,,,,,,,,,,
1024021,Plouguin,Wind,23.29,Plouguin,Onshore Wind,,,,,,Open Power System Data,http://data.open-power-system-data.org/renewable_power_plants/2016-10-21/,,,,,,,Operating,France,,48.529,-4.59327,,,,,,,,,,
1024022,Fraisse-sur-Agout,Wind,23,Fraisse-sur-Agout,Onshore Wind,,,,,,Open Power System Data,http://data.open-power-system-data.org/renewable_power_plants/2016-10-21/,,,,,,,Operating,France,,43.5926,2.79721,,,,,,,,,,
1024023,Saint-Sauveur,Wind,22.9,Saint-Sauveur,Onshore Wind,,,,,,Open Power System Data,http://data.open-power-system-data.org/renewable_power_plants/2016-10-21/,,,,,,,Operating,France,,46.8024,0.64557,,,,,,,,,,
1024024,Saint-Étienne-de-Lugdarès,Wind,22.6,Saint-Étienne-de-Lugdarès,Onshore Wind,,,,,,Open Power System Data,http://data.open-power-system-data.org/renewable_power_plants/2016-10-21/,,,,,,,Operating,France,,44.6475,3.9732,,,,,,,,,,
1024025,Calce,Biomass,22.485,Calce,Sub-critical Thermal,,,,,,Open Power System Data,http://data.open-power-system-data.org/renewable_power_plants/2016-10-21/,,,,,,,Operating,France,,42.748,2.75642,,,,,,,,,,
1024026,La Chaussée-sur-Marne,Wind,22.25,La Chaussée-sur-Marne,Onshore Wind,,,,,,Open Power System Data,http://data.open-power-system-data.org/renewable_power_plants/2016-10-21/,,,,,,,Operating,France,,48.8434,4.54355,,,,,,,,,,
1024027,Fitou,Wind,22.1,Fitou,Onshore Wind,,,,,,Open Power System Data,http://data.open-power-system-data.org/renewable_power_plants/2016-10-21/,,,,,,,Operating,France,,42.8959,2.96619,,,,,,,,,,
1024032,Arfons,Wind,22,Arfons,Onshore Wind,,,,,,Open Power System Data,http://data.open-power-system-data.org/renewable_power_plants/2016-10-21/,,,,,,,Operating,France,,43.4241,2.1895,,,,,,,,,,
1024033,Benet,Wind,22,Benet,Onshore Wind,,,,,,Open Power System Data,http://data.open-power-system-data.org/renewable_power_plants/2016-10-21/,,,,,,,Operating,France,,46.3692,-0.61367,,,,,,,,,,
1024029,Turcey,Wind,22,Turcey,Onshore Wind,,,,,,Open Power System Data,http://data.open-power-system-data.org/renewable_power_plants/2016-10-21/,,,,,,,Operating,France,,47.4088,4.7193,,,,,,,,,,
1024030,Togny-aux-Boeufs,Wind,22,Togny-aux-Boeufs,Onshore Wind,,,,,,Open Power System Data,http://data.open-power-system-data.org/renewable_power_plants/2016-10-21/,,,,,,,Operating,France,,48.8473,4.42119,,,,,,,,,,
1024028,Charly-sur-Marne,Wind,22,Charly-sur-Marne,Onshore Wind,,,,,,Open Power System Data,http://data.open-power-system-data.org/renewable_power_plants/2016-10-21/,,,,,,,Operating,France,,48.9872,3.29209,,,,,,,,,,
1024031,Bougainville,Wind,22,Bougainville,Onshore Wind,,,,,,Open Power System Data,http://data.open-power-system-data.org/renewable_power_plants/2016-10-21/,,,,,,,Operating,France,,49.8646,2.04633,,,,,,,,,,
1024034,Terminiers,Wind,21.4,Terminiers,Onshore Wind,,,,,,Open Power System Data,http://data.open-power-system-data.org/renewable_power_plants/2016-10-21/,,,,,,,Operating,France,,48.0896,1.72959,,,,,,,,,,
1024035,Marseille,Solar,21.29775,Marseille,PV,,,,,,Open Power System Data,http://data.open-power-system-data.org/renewable_power_plants/2016-10-21/,,,,,,,Operating,France,,,,,,,,,,,,,
1024036,Port-Saint-Louis-du-Rhône,Wind,21.25,Port-Saint-Louis-du-Rhône,Onshore Wind,,,,,,Open Power System Data,http://data.open-power-system-data.org/renewable_power_plants/2016-10-21/,,,,,,,Operating,France,,43.4161,4.80587,,,,,,,,,,
1024037,Vert-le-Grand,Biomass,21.166,Vert-le-Grand,Sub-critical Thermal,,,,,,Open Power System Data,http://data.open-power-system-data.org/renewable_power_plants/2016-10-21/,,,,,,,Operating,France,,48.584,2.36734,,,,,,,,,,
1024038,Roussas,Wind,21,Roussas,Onshore Wind,,,,,,Open Power System Data,http://data.open-power-system-data.org/renewable_power_plants/2016-10-21/,,,,,,,Operating,France,,44.4426,4.78735,,,,,,,,,,
1024039,Ollières,Solar,20.80707,Ollières,PV,,,,,,Open Power System Data,http://data.open-power-system-data.org/renewable_power_plants/2016-10-21/,,,,,,,Operating,France,,43.5105,5.817,,,,,,,,,,
1024040,Oinville-Saint-Liphard,Wind,20.8,Oinville-Saint-Liphard,Onshore Wind,,,,,,Open Power System Data,http://data.open-power-system-data.org/renewable_power_plants/2016-10-21/,,,,,,,Operating,France,,48.2347,1.92422,,,,,,,,,,
1024041,Viviers-sur-Chiers,Wind,20.8,Viviers-sur-Chiers,Onshore Wind,,,,,,Open Power System Data,http://data.open-power-system-data.org/renewable_power_plants/2016-10-21/,,,,,,,Operating,France,,49.4655,5.63135,,,,,,,,,,
1024042,Salles-de-Villefagnan,Wind,20.7,Salles-de-Villefagnan,Onshore Wind,,,,,,Open Power System Data,http://data.open-power-system-data.org/renewable_power_plants/2016-10-21/,,,,,,,Operating,France,,45.9595,0.1704,,,,,,,,,,
1024043,Bourthes,Wind,20.7,Bourthes,Onshore Wind,,,,,,Open Power System Data,http://data.open-power-system-data.org/renewable_power_plants/2016-10-21/,,,,,,,Operating,France,,50.6125,1.93434,,,,,,,,,,
1024044,Saint-Germainmont,Wind,20.5,Saint-Germainmont,Onshore Wind,,,,,,Open Power System Data,http://data.open-power-system-data.org/renewable_power_plants/2016-10-21/,,,,,,,Operating,France,,49.521,4.13504,,,,,,,,,,
1024045,Crédin,Wind,20.4,Crédin,Onshore Wind,,,,,,Open Power System Data,http://data.open-power-system-data.org/renewable_power_plants/2016-10-21/,,,,,,,Operating,France,,48.039,-2.76525,,,,,,,,,,
1024046,Créquy,Wind,20.25,Créquy,Onshore Wind,,,,,,Open Power System Data,http://data.open-power-system-data.org/renewable_power_plants/2016-10-21/,,,,,,,Operating,France,,50.5028,2.03762,,,,,,,,,,
1024047,Belvézet,Solar,20.12174,Belvézet,PV,,,,,,Open Power System Data,http://data.open-power-system-data.org/renewable_power_plants/2016-10-21/,,,,,,,Operating,France,,44.0908,4.3556,,,,,,,,,,
1024048,Janville,Wind,20.1,Janville,Onshore Wind,,,,,,Open Power System Data,http://data.open-power-system-data.org/renewable_power_plants/2016-10-21/,,,,,,,Operating,France,,48.2008,1.88947,,,,,,,,,,
1024060,Assac,Wind,20,Assac,Onshore Wind,,,,,,Open Power System Data,http://data.open-power-system-data.org/renewable_power_plants/2016-10-21/,,,,,,,Operating,France,,43.9786,2.43417,,,,,,,,,,
1024054,Civray,Wind,20,Civray,Onshore Wind,,,,,,Open Power System Data,http://data.open-power-system-data.org/renewable_power_plants/2016-10-21/,,,,,,,Operating,France,,46.9733,2.18548,,,,,,,,,,
1024055,Sainte-Thorette,Wind,20,Sainte-Thorette,Onshore Wind,,,,,,Open Power System Data,http://data.open-power-system-data.org/renewable_power_plants/2016-10-21/,,,,,,,Operating,France,,47.0778,2.20691,,,,,,,,,,
1024056,Étalante,Wind,20,Étalante,Onshore Wind,,,,,,Open Power System Data,http://data.open-power-system-data.org/renewable_power_plants/2016-10-21/,,,,,,,Operating,France,,47.6291,4.76639,,,,,,,,,,
1024052,Payns,Wind,20,Payns,Onshore Wind,,,,,,Open Power System Data,http://data.open-power-system-data.org/renewable_power_plants/2016-10-21/,,,,,,,Operating,France,,48.3756,3.9579,,,,,,,,,,
1024057,Courcelles-sur-Aire,Wind,20,Courcelles-sur-Aire,Onshore Wind,,,,,,Open Power System Data,http://data.open-power-system-data.org/renewable_power_plants/2016-10-21/,,,,,,,Operating,France,,48.9405,5.23356,,,,,,,,,,
1024053,Fierville-Bray,Wind,20,Fierville-Bray,Onshore Wind,,,,,,Open Power System Data,http://data.open-power-system-data.org/renewable_power_plants/2016-10-21/,,,,,,,Operating,France,,49.0649,-0.17903,,,,,,,,,,
1024050,Leffincourt,Wind,20,Leffincourt,Onshore Wind,,,,,,Open Power System Data,http://data.open-power-system-data.org/renewable_power_plants/2016-10-21/,,,,,,,Operating,France,,49.3812,4.55038,,,,,,,,,,
1024051,Saulces-Champenoises,Wind,20,Saulces-Champenoises,Onshore Wind,,,,,,Open Power System Data,http://data.open-power-system-data.org/renewable_power_plants/2016-10-21/,,,,,,,Operating,France,,49.4465,4.50424,,,,,,,,,,
1024049,Lehaucourt,Wind,20,Lehaucourt,Onshore Wind,,,,,,Open Power System Data,http://data.open-power-system-data.org/renewable_power_plants/2016-10-21/,,,,,,,Operating,France,,49.9116,3.27768,,,,,,,,,,
1024059,Prouville,Wind,20,Prouville,Onshore Wind,,,,,,Open Power System Data,http://data.open-power-system-data.org/renewable_power_plants/2016-10-21/,,,,,,,Operating,France,,50.1561,2.12993,,,,,,,,,,
1024058,Coupelle-Vieille,Wind,20,Coupelle-Vieille,Onshore Wind,,,,,,Open Power System Data,http://data.open-power-system-data.org/renewable_power_plants/2016-10-21/,,,,,,,Operating,France,,50.5328,2.07722,,,,,,,,,,
1024061,Le Port,Solar,19.97097,Le Port,PV,,,,,,Open Power System Data,http://data.open-power-system-data.org/renewable_power_plants/2016-10-21/,,,,,,,Operating,France,,-20.950068,55.314866,,,,,,,,,,
1024062,Bonnières,Wind,19.95,Bonnières,Onshore Wind,,,,,,Open Power System Data,http://data.open-power-system-data.org/renewable_power_plants/2016-10-21/,,,,,,,Operating,France,,50.237,2.26849,,,,,,,,,,
1024063,Laruns,Hydro,19.739,Laruns,Hydro,,,,,,Open Power System Data,http://data.open-power-system-data.org/renewable_power_plants/2016-10-21/,,,,,,,Operating,France,,42.8923,-0.41982,,,,,,,,,,
1024064,Kergrist,Wind,19.7,Kergrist,Onshore Wind,,,,,,Open Power System Data,http://data.open-power-system-data.org/renewable_power_plants/2016-10-21/,,,,,,,Operating,France,,48.1474,-2.92864,,,,,,,,,,
1024066,Bouin,Wind,19.5,Bouin,Onshore Wind,,,,,,Open Power System Data,http://data.open-power-system-data.org/renewable_power_plants/2016-10-21/,,,,,,,Operating,France,,46.9811,-2.00447,,,,,,,,,,
1024065,Pont-Melvez,Wind,19.5,Pont-Melvez,Onshore Wind,,,,,,Open Power System Data,http://data.open-power-system-data.org/renewable_power_plants/2016-10-21/,,,,,,,Operating,France,,48.4743,-3.28472,,,,,,,,,,
1024067,Strasbourg,Biomass,19.446,Strasbourg,Sub-critical Thermal,,,,,,Open Power System Data,http://data.open-power-system-data.org/renewable_power_plants/2016-10-21/,,,,,,,Operating,France,,48.5716,7.76783,,,,,,,,,,
1024068,Mios,Solar,19.285,Mios,PV,,,,,,Open Power System Data,http://data.open-power-system-data.org/renewable_power_plants/2016-10-21/,,,,,,,Operating,France,,44.6177,-0.89585,,,,,,,,,,
1024069,Saint-Martin-de-Crau,Solar,18.7102,Saint-Martin-de-Crau,PV,,,,,,Open Power System Data,http://data.open-power-system-data.org/renewable_power_plants/2016-10-21/,,,,,,,Operating,France,,43.6121,4.85636,,,,,,,,,,
1024070,Clermont-Ferrand,Biomass,18.62,Clermont-Ferrand,Sub-critical Thermal,,,,,,Open Power System Data,http://data.open-power-system-data.org/renewable_power_plants/2016-10-21/,,,,,,,Operating,France,,45.7859,3.1156,,,,,,,,,,
1024071,Saint-Jean-Lachalm,Wind,18.6,Saint-Jean-Lachalm,Onshore Wind,,,,,,Open Power System Data,http://data.open-power-system-data.org/renewable_power_plants/2016-10-21/,,,,,,,Operating,France,,44.942,3.72387,,,,,,,,,,
1024072,Saint-Jean-de-Folleville,Biomass,18.484,Saint-Jean-de-Folleville,,,,,,,Open Power System Data,http://data.open-power-system-data.org/renewable_power_plants/2016-10-21/,,,,,,,Operating,France,,49.5056,0.49981,,,,,,,,,,
1024073,Saint-Cirgues-en-Montagne,Wind,18.45,Saint-Cirgues-en-Montagne,Onshore Wind,,,,,,Open Power System Data,http://data.open-power-system-data.org/renewable_power_plants/2016-10-21/,,,,,,,Operating,France,,44.7679,4.08832,,,,,,,,,,
1024075,Sévigny-Waleppe,Wind,18.45,Sévigny-Waleppe,Onshore Wind,,,,,,Open Power System Data,http://data.open-power-system-data.org/renewable_power_plants/2016-10-21/,,,,,,,Operating,France,,49.6174,4.08027,,,,,,,,,,
1024074,Renneville,Wind,18.45,Renneville,Onshore Wind,,,,,,Open Power System Data,http://data.open-power-system-data.org/renewable_power_plants/2016-10-21/,,,,,,,Operating,France,,49.6513,4.13598,,,,,,,,,,
1024076,Épehy,Wind,18.4,Épehy,Onshore Wind,,,,,,Open Power System Data,http://data.open-power-system-data.org/renewable_power_plants/2016-10-21/,,,,,,,Operating,France,,50.0062,3.13293,,,,,,,,,,
1024077,Béziers,Solar,18.39573,Béziers,PV,,,,,,Open Power System Data,http://data.open-power-system-data.org/renewable_power_plants/2016-10-21/,,,,,,,Operating,France,,43.3476,3.23081,,,,,,,,,,
1024079,Verchin,Wind,18.2,Verchin,Onshore Wind,,,,,,Open Power System Data,http://data.open-power-system-data.org/renewable_power_plants/2016-10-21/,,,,,,,Operating,France,,50.4939,2.18039,,,,,,,,,,
1024078,Hézecques,Wind,18.2,Hézecques,Onshore Wind,,,,,,Open Power System Data,http://data.open-power-system-data.org/renewable_power_plants/2016-10-21/,,,,,,,Operating,France,,50.5342,2.19109,,,,,,,,,,
1024081,Talizat,Wind,18,Talizat,Onshore Wind,,,,,,Open Power System Data,http://data.open-power-system-data.org/renewable_power_plants/2016-10-21/,,,,,,,Operating,France,,45.1231,3.05338,,,,,,,,,,
1024082,Vatan,Wind,18,Vatan,Onshore Wind,,,,,,Open Power System Data,http://data.open-power-system-data.org/renewable_power_plants/2016-10-21/,,,,,,,Operating,France,,47.0539,1.8255,,,,,,,,,,
1024083,Pannecé,Wind,18,Pannecé,Onshore Wind,,,,,,Open Power System Data,http://data.open-power-system-data.org/renewable_power_plants/2016-10-21/,,,,,,,Operating,France,,47.488,-1.21583,,,,,,,,,,
1024089,Ouanne,Wind,18,Ouanne,Onshore Wind,,,,,,Open Power System Data,http://data.open-power-system-data.org/renewable_power_plants/2016-10-21/,,,,,,,Operating,France,,47.6577,3.4191,,,,,,,,,,
1024084,Guigneville,Wind,18,Guigneville,Onshore Wind,,,,,,Open Power System Data,http://data.open-power-system-data.org/renewable_power_plants/2016-10-21/,,,,,,,Operating,France,,48.2157,2.17305,,,,,,,,,,
1024085,Souilly,Wind,18,Souilly,Onshore Wind,,,,,,Open Power System Data,http://data.open-power-system-data.org/renewable_power_plants/2016-10-21/,,,,,,,Operating,France,,49.0294,5.30135,,,,,,,,,,
1024088,Hombleux,Wind,18,Hombleux,Onshore Wind,,,,,,Open Power System Data,http://data.open-power-system-data.org/renewable_power_plants/2016-10-21/,,,,,,,Operating,France,,49.7434,2.99159,,,,,,,,,,
1024080,Beaurevoir,Wind,18,Beaurevoir,Onshore Wind,,,,,,Open Power System Data,http://data.open-power-system-data.org/renewable_power_plants/2016-10-21/,,,,,,,Operating,France,,49.9967,3.32945,,,,,,,,,,
1024086,Achiet-le-Grand,Wind,18,Achiet-le-Grand,Onshore Wind,,,,,,Open Power System Data,http://data.open-power-system-data.org/renewable_power_plants/2016-10-21/,,,,,,,Operating,France,,50.1327,2.77911,,,,,,,,,,
1024087,Chelers,Wind,18,Chelers,Onshore Wind,,,,,,Open Power System Data,http://data.open-power-system-data.org/renewable_power_plants/2016-10-21/,,,,,,,Operating,France,,50.3818,2.48783,,,,,,,,,,
1024090,Saint-Amand-sur-Fion,Wind,17.9,Saint-Amand-sur-Fion,Onshore Wind,,,,,,Open Power System Data,http://data.open-power-system-data.org/renewable_power_plants/2016-10-21/,,,,,,,Operating,France,,48.8267,4.61092,,,,,,,,,,
1024091,Névian,Wind,17.85,Névian,Onshore Wind,,,,,,Open Power System Data,http://data.open-power-system-data.org/renewable_power_plants/2016-10-21/,,,,,,,Operating,France,,43.2038,2.8857,,,,,,,,,,
1024092,Rethonvillers,Wind,17.7,Rethonvillers,Onshore Wind,,,,,,Open Power System Data,http://data.open-power-system-data.org/renewable_power_plants/2016-10-21/,,,,,,,Operating,France,,49.7362,2.85593,,,,,,,,,,
1024093,Le Plessis-Gassot,Biomass,17.6,Le Plessis-Gassot,Sub-critical Thermal,,,,,,Open Power System Data,http://data.open-power-system-data.org/renewable_power_plants/2016-10-21/,,,,,,,Operating,France,,49.0361,2.41501,,,,,,,,,,
1024094,Caulières,Wind,17.5,Caulières,Onshore Wind,,,,,,Open Power System Data,http://data.open-power-system-data.org/renewable_power_plants/2016-10-21/,,,,,,,Operating,France,,49.7864,1.89936,,,,,,,,,,
1024095,Vron,Wind,17.2,Vron,Onshore Wind,,,,,,Open Power System Data,http://data.open-power-system-data.org/renewable_power_plants/2016-10-21/,,,,,,,Operating,France,,50.3162,1.76459,,,,,,,,,,
1024096,Saint-Benoît,Solar,17.06567,Saint-Benoît,PV,,,,,,Open Power System Data,http://data.open-power-system-data.org/renewable_power_plants/2016-10-21/,,,,,,,Operating,France,,-21.03769,55.685236,,,,,,,,,,
1024097,Barre,Wind,17.03,Barre,Onshore Wind,,,,,,Open Power System Data,http://data.open-power-system-data.org/renewable_power_plants/2016-10-21/,,,,,,,Operating,France,,43.7433,2.81557,,,,,,,,,,
1024098,Conilhac-de-la-Montagne,Wind,17,Conilhac-de-la-Montagne,Onshore Wind,,,,,,Open Power System Data,http://data.open-power-system-data.org/renewable_power_plants/2016-10-21/,,,,,,,Operating,France,,42.9788,2.20534,,,,,,,,,,
1024099,Bussière-Saint-Georges,Wind,17,Bussière-Saint-Georges,Onshore Wind,,,,,,Open Power System Data,http://data.open-power-system-data.org/renewable_power_plants/2016-10-21/,,,,,,,Operating,France,,46.4018,2.15459,,,,,,,,,,
1024100,Derval,Wind,17,Derval,Onshore Wind,,,,,,Open Power System Data,http://data.open-power-system-data.org/renewable_power_plants/2016-10-21/,,,,,,,Operating,France,,47.6577,-1.67756,,,,,,,,,,
1024101,Corroy,Wind,17,Corroy,Onshore Wind,,,,,,Open Power System Data,http://data.open-power-system-data.org/renewable_power_plants/2016-10-21/,,,,,,,Operating,France,,48.7025,3.95761,,,,,,,,,,
1024102,Baie-Mahault,Solar,16.98945,Baie-Mahault,PV,,,,,,Open Power System Data,http://data.open-power-system-data.org/renewable_power_plants/2016-10-21/,,,,,,,Operating,France,,16.2516,-61.5922,,,,,,,,,,
1024103,Conilhac-Corbières,Wind,16.7,Conilhac-Corbières,Onshore Wind,,,,,,Open Power System Data,http://data.open-power-system-data.org/renewable_power_plants/2016-10-21/,,,,,,,Operating,France,,43.1849,2.71637,,,,,,,,,,
1024105,Saint-Philbert-de-Bouaine,Wind,16.4,Saint-Philbert-de-Bouaine,Onshore Wind,,,,,,Open Power System Data,http://data.open-power-system-data.org/renewable_power_plants/2016-10-21/,,,,,,,Operating,France,,46.9925,-1.5071,,,,,,,,,,
1024104,Rouy-le-Petit,Wind,16.4,Rouy-le-Petit,Onshore Wind,,,,,,Open Power System Data,http://data.open-power-system-data.org/renewable_power_plants/2016-10-21/,,,,,,,Operating,France,,49.7656,2.95276,,,,,,,,,,
1024106,Gonfreville,Wind,16.31,Gonfreville,Onshore Wind,,,,,,Open Power System Data,http://data.open-power-system-data.org/renewable_power_plants/2016-10-21/,,,,,,,Operating,France,,49.2312,-1.40309,,,,,,,,,,
1024107,La Tâche,Wind,16.304,La Tâche,Onshore Wind,,,,,,Open Power System Data,http://data.open-power-system-data.org/renewable_power_plants/2016-10-21/,,,,,,,Operating,France,,45.87,0.36376,,,,,,,,,,
1024108,Saffré,Wind,16.304,Saffré,Onshore Wind,,,,,,Open Power System Data,http://data.open-power-system-data.org/renewable_power_plants/2016-10-21/,,,,,,,Operating,France,,47.4913,-1.57927,,,,,,,,,,
1024109,Roche-Charles-la-Mayrand,Wind,16.3,Roche-Charles-la-Mayrand,Onshore Wind,,,,,,Open Power System Data,http://data.open-power-system-data.org/renewable_power_plants/2016-10-21/,,,,,,,Operating,France,,45.4478,3.02,,,,,,,,,,
1024110,Esparron-de-Verdon,Solar,16.2137,Esparron-de-Verdon,PV,,,,,,Open Power System Data,http://data.open-power-system-data.org/renewable_power_plants/2016-10-21/,,,,,,,Operating,France,,43.7433,5.98851,,,,,,,,,,
1024111,Moustéru,Wind,16.2,Moustéru,Onshore Wind,,,,,,Open Power System Data,http://data.open-power-system-data.org/renewable_power_plants/2016-10-21/,,,,,,,Operating,France,,48.5289,-3.23494,,,,,,,,,,
1024112,Hargicourt,Wind,16.2,Hargicourt,Onshore Wind,,,,,,Open Power System Data,http://data.open-power-system-data.org/renewable_power_plants/2016-10-21/,,,,,,,Operating,France,,49.7132,2.51952,,,,,,,,,,
1024113,Laprugne,Wind,16.08,Laprugne,Onshore Wind,,,,,,Open Power System Data,http://data.open-power-system-data.org/renewable_power_plants/2016-10-21/,,,,,,,Operating,France,,45.994,3.76233,,,,,,,,,,
1024115,Marsanne,Wind,16,Marsanne,Onshore Wind,,,,,,Open Power System Data,http://data.open-power-system-data.org/renewable_power_plants/2016-10-21/,,,,,,,Operating,France,,44.6395,4.88331,,,,,,,,,,
1024116,Saint-Quentin-en-Mauges,Wind,16,Saint-Quentin-en-Mauges,Onshore Wind,,,,,,Open Power System Data,http://data.open-power-system-data.org/renewable_power_plants/2016-10-21/,,,,,,,Operating,France,,47.2888,-0.89878,,,,,,,,,,
1024114,Échalot,Wind,16,Échalot,Onshore Wind,,,,,,Open Power System Data,http://data.open-power-system-data.org/renewable_power_plants/2016-10-21/,,,,,,,Operating,France,,47.6073,4.8348,,,,,,,,,,
1024119,Moréac,Wind,16,Moréac,Onshore Wind,,,,,,Open Power System Data,http://data.open-power-system-data.org/renewable_power_plants/2016-10-21/,,,,,,,Operating,France,,47.9329,-2.80396,,,,,,,,,,
1024117,Maisons-en-Champagne,Wind,16,Maisons-en-Champagne,Onshore Wind,,,,,,Open Power System Data,http://data.open-power-system-data.org/renewable_power_plants/2016-10-21/,,,,,,,Operating,France,,48.7366,4.46728,,,,,,,,,,
1024120,Landroff,Wind,16,Landroff,Onshore Wind,,,,,,Open Power System Data,http://data.open-power-system-data.org/renewable_power_plants/2016-10-21/,,,,,,,Operating,France,,48.9648,6.61717,,,,,,,,,,
1024118,Tellancourt,Wind,16,Tellancourt,Onshore Wind,,,,,,Open Power System Data,http://data.open-power-system-data.org/renewable_power_plants/2016-10-21/,,,,,,,Operating,France,,49.509,5.63027,,,,,,,,,,
1024121,Beauchamps,Wind,16,Beauchamps,Onshore Wind,,,,,,Open Power System Data,http://data.open-power-system-data.org/renewable_power_plants/2016-10-21/,,,,,,,Operating,France,,50.0186,1.52408,,,,,,,,,,
1024122,Licq-Athérey,Hydro,15.909,Licq-Athérey,Hydro,,,,,,Open Power System Data,http://data.open-power-system-data.org/renewable_power_plants/2016-10-21/,,,,,,,Operating,France,,43.0554,-0.87873,,,,,,,,,,
1024123,Livet-et-Gavet,Hydro,15.9,Livet-et-Gavet,Hydro,,,,,,Open Power System Data,http://data.open-power-system-data.org/renewable_power_plants/2016-10-21/,,,,,,,Operating,France,,45.0905,5.91878,,,,,,,,,,
1024124,Sainte-Rose,Solar,15.72967,Sainte-Rose,PV,,,,,,Open Power System Data,http://data.open-power-system-data.org/renewable_power_plants/2016-10-21/,,,,,,,Operating,France,,-21.135532,55.793592,,,,,,,,,,
1024125,Mirande,Solar,15.65343,Mirande,PV,,,,,,Open Power System Data,http://data.open-power-system-data.org/renewable_power_plants/2016-10-21/,,,,,,,Operating,France,,43.5186,0.41048,,,,,,,,,,
1024126,Bressuire,Wind,15.65,Bressuire,Onshore Wind,,,,,,Open Power System Data,http://data.open-power-system-data.org/renewable_power_plants/2016-10-21/,,,,,,,Operating,France,,46.8545,-0.4796,,,,,,,,,,
1024127,Brusque,Wind,15.6,Brusque,Onshore Wind,,,,,,Open Power System Data,http://data.open-power-system-data.org/renewable_power_plants/2016-10-21/,,,,,,,Operating,France,,43.7645,2.94818,,,,,,,,,,
1024128,Le Margnès,Wind,15.1,Le Margnès,Onshore Wind,,,,,,Open Power System Data,http://data.open-power-system-data.org/renewable_power_plants/2016-10-21/,,,,,,,Operating,France,,43.6525,2.59979,,,,,,,,,,
1024129,Le Lamentin,Solar,15.02184,Le Lamentin,PV,,,,,,Open Power System Data,http://data.open-power-system-data.org/renewable_power_plants/2016-10-21/,,,,,,,Operating,France,,14.6247,-60.9936,,,,,,,,,,
1024130,Coren,Wind,15,Coren,Onshore Wind,,,,,,Open Power System Data,http://data.open-power-system-data.org/renewable_power_plants/2016-10-21/,,,,,,,Operating,France,,45.0873,3.10857,,,,,,,,,,
1024131,Liniez,Wind,15,Liniez,Onshore Wind,,,,,,Open Power System Data,http://data.open-power-system-data.org/renewable_power_plants/2016-10-21/,,,,,,,Operating,France,,47.014,1.75697,,,,,,,,,,
1024132,Le Transloy,Wind,15,Le Transloy,Onshore Wind,,,,,,Open Power System Data,http://data.open-power-system-data.org/renewable_power_plants/2016-10-21/,,,,,,,Operating,France,,50.0506,2.8924,,,,,,,,,,
1024133,Criel-sur-Mer,Wind,14.82,Criel-sur-Mer,Onshore Wind,,,,,,Open Power System Data,http://data.open-power-system-data.org/renewable_power_plants/2016-10-21/,,,,,,,Operating,France,,50.0191,1.32379,,,,,,,,,,
1024135,Queige,Hydro,14.7,Queige,Hydro,,,,,,Open Power System Data,http://data.open-power-system-data.org/renewable_power_plants/2016-10-21/,,,,,,,Operating,France,,45.7077,6.46513,,,,,,,,,,
1024134,Francheville,Wind,14.7,Francheville,Onshore Wind,,,,,,Open Power System Data,http://data.open-power-system-data.org/renewable_power_plants/2016-10-21/,,,,,,,Operating,France,,48.8791,4.53948,,,,,,,,,,
1024137,Salaise-sur-Sanne,Biomass,14.6,Salaise-sur-Sanne,Sub-critical Thermal,,,,,,Open Power System Data,http://data.open-power-system-data.org/renewable_power_plants/2016-10-21/,,,,,,,Operating,France,,45.3441,4.80893,,,,,,,,,,
1024136,Bourgoin-Jallieu,Biomass,14.6,Bourgoin-Jallieu,Sub-critical Thermal,,,,,,Open Power System Data,http://data.open-power-system-data.org/renewable_power_plants/2016-10-21/,,,,,,,Operating,France,,45.6027,5.27377,,,,,,,,,,
1024138,Sauto,Hydro,14.528,Sauto,Hydro,,,,,,Open Power System Data,http://data.open-power-system-data.org/renewable_power_plants/2016-10-21/,,,,,,,Operating,France,,42.5155,2.14877,,,,,,,,,,
1024139,Autremencourt,Wind,14.5,Autremencourt,Onshore Wind,,,,,,Open Power System Data,http://data.open-power-system-data.org/renewable_power_plants/2016-10-21/,,,,,,,Operating,France,,49.7049,3.79391,,,,,,,,,,
1024140,Bordeaux,Solar,14.48465,Bordeaux,PV,,,,,,Open Power System Data,http://data.open-power-system-data.org/renewable_power_plants/2016-10-21/,,,,,,,Operating,France,,44.8579,-0.57358,,,,,,,,,,
1024141,Le Mans,Biomass,14.375,Le Mans,Sub-critical Thermal,,,,,,Open Power System Data,http://data.open-power-system-data.org/renewable_power_plants/2016-10-21/,,,,,,,Operating,France,,47.9889,0.20002,,,,,,,,,,
1024142,Ablaincourt-Pressoir,Wind,14.35,Ablaincourt-Pressoir,Onshore Wind,,,,,,Open Power System Data,http://data.open-power-system-data.org/renewable_power_plants/2016-10-21/,,,,,,,Operating,France,,49.8414,2.82471,,,,,,,,,,
1024143,Vaux-le-Pénil,Biomass,14.302,Vaux-le-Pénil,Sub-critical Thermal,,,,,,Open Power System Data,http://data.open-power-system-data.org/renewable_power_plants/2016-10-21/,,,,,,,Operating,France,,48.5244,2.69789,,,,,,,,,,
1024144,Villers-Saint-Paul,Biomass,14.3,Villers-Saint-Paul,Sub-critical Thermal,,,,,,Open Power System Data,http://data.open-power-system-data.org/renewable_power_plants/2016-10-21/,,,,,,,Operating,France,,49.2885,2.49296,,,,,,,,,,
1024145,Millac,Hydro,14.1,Millac,Hydro,,,,,,Open Power System Data,http://data.open-power-system-data.org/renewable_power_plants/2016-10-21/,,,,,,,Operating,France,,46.1954,0.70545,,,,,,,,,,
1024147,Fos-sur-Mer,Wind,14,Fos-sur-Mer,Onshore Wind,,,,,,Open Power System Data,http://data.open-power-system-data.org/renewable_power_plants/2016-10-21/,,,,,,,Operating,France,,43.4557,4.90423,,,,,,,,,,
1024149,Villeveyrac,Wind,14,Villeveyrac,Onshore Wind,,,,,,Open Power System Data,http://data.open-power-system-data.org/renewable_power_plants/2016-10-21/,,,,,,,Operating,France,,43.5006,3.59326,,,,,,,,,,
1024148,Plestan,Wind,14,Plestan,Onshore Wind,,,,,,Open Power System Data,http://data.open-power-system-data.org/renewable_power_plants/2016-10-21/,,,,,,,Operating,France,,48.4145,-2.44145,,,,,,,,,,
1024146,Périgny-la-Rose,Wind,14,Périgny-la-Rose,Onshore Wind,,,,,,Open Power System Data,http://data.open-power-system-data.org/renewable_power_plants/2016-10-21/,,,,,,,Operating,France,,48.5539,3.62456,,,,,,,,,,
1024150,Esclavolles-Lurey,Wind,14,Esclavolles-Lurey,Onshore Wind,,,,,,Open Power System Data,http://data.open-power-system-data.org/renewable_power_plants/2016-10-21/,,,,,,,Operating,France,,48.5549,3.64994,,,,,,,,,,
1024151,Chéry,Wind,13.9,Chéry,Onshore Wind,,,,,,Open Power System Data,http://data.open-power-system-data.org/renewable_power_plants/2016-10-21/,,,,,,,Operating,France,,47.1159,2.02614,,,,,,,,,,
1024152,Roquefort-des-Corbières,Wind,13.855,Roquefort-des-Corbières,Onshore Wind,,,,,,Open Power System Data,http://data.open-power-system-data.org/renewable_power_plants/2016-10-21/,,,,,,,Operating,France,,42.9921,2.9299,,,,,,,,,,
1024153,Saint-Agrève,Wind,13.812,Saint-Agrève,Onshore Wind,,,,,,Open Power System Data,http://data.open-power-system-data.org/renewable_power_plants/2016-10-21/,,,,,,,Operating,France,,45.0053,4.41311,,,,,,,,,,
1024157,Castanet-le-Haut,Wind,13.8,Castanet-le-Haut,Onshore Wind,,,,,,Open Power System Data,http://data.open-power-system-data.org/renewable_power_plants/2016-10-21/,,,,,,,Operating,France,,43.6735,2.95431,,,,,,,,,,
1024155,Murasson,Wind,13.8,Murasson,Onshore Wind,,,,,,Open Power System Data,http://data.open-power-system-data.org/renewable_power_plants/2016-10-21/,,,,,,,Operating,France,,43.7609,2.76278,,,,,,,,,,
1024156,Xambes,Wind,13.8,Xambes,Onshore Wind,,,,,,Open Power System Data,http://data.open-power-system-data.org/renewable_power_plants/2016-10-21/,,,,,,,Operating,France,,45.8242,0.10681,,,,,,,,,,
1024158,Saint-Amand,Wind,13.8,Saint-Amand,Onshore Wind,,,,,,Open Power System Data,http://data.open-power-system-data.org/renewable_power_plants/2016-10-21/,,,,,,,Operating,France,,49.0443,-0.94836,,,,,,,,,,
1024162,Sourdon,Wind,13.8,Sourdon,Onshore Wind,,,,,,Open Power System Data,http://data.open-power-system-data.org/renewable_power_plants/2016-10-21/,,,,,,,Operating,France,,49.708,2.40084,,,,,,,,,,
1024163,Thory,Wind,13.8,Thory,Onshore Wind,,,,,,Open Power System Data,http://data.open-power-system-data.org/renewable_power_plants/2016-10-21/,,,,,,,Operating,France,,49.72,2.43071,,,,,,,,,,
1024161,Manneville-ès-Plains,Wind,13.8,Manneville-ès-Plains,Onshore Wind,,,,,,Open Power System Data,http://data.open-power-system-data.org/renewable_power_plants/2016-10-21/,,,,,,,Operating,France,,49.8582,0.75096,,,,,,,,,,
1024154,Fresnoy-le-Grand,Wind,13.8,Fresnoy-le-Grand,Onshore Wind,,,,,,Open Power System Data,http://data.open-power-system-data.org/renewable_power_plants/2016-10-21/,,,,,,,Operating,France,,49.9537,3.41964,,,,,,,,,,
1024159,Herlincourt,Wind,13.8,Herlincourt,Onshore Wind,,,,,,Open Power System Data,http://data.open-power-system-data.org/renewable_power_plants/2016-10-21/,,,,,,,Operating,France,,50.3444,2.29166,,,,,,,,,,
1024160,Huclier,Wind,13.8,Huclier,Onshore Wind,,,,,,Open Power System Data,http://data.open-power-system-data.org/renewable_power_plants/2016-10-21/,,,,,,,Operating,France,,50.4363,2.35466,,,,,,,,,,
1024164,Le Bourg-d'Hem,Hydro,13.7,Le Bourg-d'Hem,Hydro,,,,,,Open Power System Data,http://data.open-power-system-data.org/renewable_power_plants/2016-10-21/,,,,,,,Operating,France,,46.3006,1.84042,,,,,,,,,,
1024165,Castelnau-d'Estrétefonds,Solar,13.60385,Castelnau-d'Estrétefonds,PV,,,,,,Open Power System Data,http://data.open-power-system-data.org/renewable_power_plants/2016-10-21/,,,,,,,Operating,France,,43.7942,1.36215,,,,,,,,,,
1024166,Toulouse,Solar,13.59581,Toulouse,PV,,,,,,Open Power System Data,http://data.open-power-system-data.org/renewable_power_plants/2016-10-21/,,,,,,,Operating,France,,43.596,1.4323,,,,,,,,,,
1024167,Kourou,Solar,13.58552,Kourou,PV,,,,,,Open Power System Data,http://data.open-power-system-data.org/renewable_power_plants/2016-10-21/,,,,,,,Operating,France,,4.93344,-52.7663,,,,,,,,,,
1024168,Preuseville,Wind,13.5,Preuseville,Onshore Wind,,,,,,Open Power System Data,http://data.open-power-system-data.org/renewable_power_plants/2016-10-21/,,,,,,,Operating,France,,49.8803,1.50521,,,,,,,,,,
1024169,Saint-Ouen,Biomass,13.4,Saint-Ouen,,,,,,,Open Power System Data,http://data.open-power-system-data.org/renewable_power_plants/2016-10-21/,,,,,,,Operating,France,,48.9097,2.3332,,,,,,,,,,
1024170,Petit-Canal,Solar,13.39734,Petit-Canal,PV,,,,,,Open Power System Data,http://data.open-power-system-data.org/renewable_power_plants/2016-10-21/,,,,,,,Operating,France,,16.3899,-61.4498,,,,,,,,,,
1024171,Pontcharra,Hydro,13.335,Pontcharra,Hydro,,,,,,Open Power System Data,http://data.open-power-system-data.org/renewable_power_plants/2016-10-21/,,,,,,,Operating,France,,45.4199,6.02093,,,,,,,,,,
1024172,Castillon-en-Couserans,Hydro,13.29,Castillon-en-Couserans,Hydro,,,,,,Open Power System Data,http://data.open-power-system-data.org/renewable_power_plants/2016-10-21/,,,,,,,Operating,France,,42.9166,1.05522,,,,,,,,,,
1024174,Repaix,Wind,13.2,Repaix,Onshore Wind,,,,,,Open Power System Data,http://data.open-power-system-data.org/renewable_power_plants/2016-10-21/,,,,,,,Operating,France,,48.6125,6.83083,,,,,,,,,,
1024173,Igney,Wind,13.2,Igney,Onshore Wind,,,,,,Open Power System Data,http://data.open-power-system-data.org/renewable_power_plants/2016-10-21/,,,,,,,Operating,France,,48.6327,6.81958,,,,,,,,,,
1024175,Foulcrey,Wind,13.2,Foulcrey,Onshore Wind,,,,,,Open Power System Data,http://data.open-power-system-data.org/renewable_power_plants/2016-10-21/,,,,,,,Operating,France,,48.6398,6.86773,,,,,,,,,,
1024176,Narbonne,Solar,13.18965,Narbonne,PV,,,,,,Open Power System Data,http://data.open-power-system-data.org/renewable_power_plants/2016-10-21/,,,,,,,Operating,France,,43.1651,3.02005,,,,,,,,,,
1024177,Treilles,Wind,13,Treilles,Onshore Wind,,,,,,Open Power System Data,http://data.open-power-system-data.org/renewable_power_plants/2016-10-21/,,,,,,,Operating,France,,42.9178,2.94365,,,,,,,,,,
1024178,Nice,Biomass,12.992,Nice,,,,,,,Open Power System Data,http://data.open-power-system-data.org/renewable_power_plants/2016-10-21/,,,,,,,Operating,France,,43.7123,7.2375,,,,,,,,,,
1024179,Valensole,Solar,12.84783,Valensole,PV,,,,,,Open Power System Data,http://data.open-power-system-data.org/renewable_power_plants/2016-10-21/,,,,,,,Operating,France,,43.8382,5.94248,,,,,,,,,,
1024181,Bujaleuf,Hydro,12.8,Bujaleuf,Hydro,,,,,,Open Power System Data,http://data.open-power-system-data.org/renewable_power_plants/2016-10-21/,,,,,,,Operating,France,,45.7924,1.63118,,,,,,,,,,
1024180,Fiefs,Wind,12.8,Fiefs,Onshore Wind,,,,,,Open Power System Data,http://data.open-power-system-data.org/renewable_power_plants/2016-10-21/,,,,,,,Operating,France,,50.4997,2.32101,,,,,,,,,,
1024182,Le Bernard,Wind,12.65,Le Bernard,Onshore Wind,,,,,,Open Power System Data,http://data.open-power-system-data.org/renewable_power_plants/2016-10-21/,,,,,,,Operating,France,,46.448,-1.44013,,,,,,,,,,
1024184,Avignonet-Lauragais,Wind,12.6,Avignonet-Lauragais,Onshore Wind,,,,,,Open Power System Data,http://data.open-power-system-data.org/renewable_power_plants/2016-10-21/,,,,,,,Operating,France,,43.3771,1.77289,,,,,,,,,,
1024183,Montloué,Wind,12.6,Montloué,Onshore Wind,,,,,,Open Power System Data,http://data.open-power-system-data.org/renewable_power_plants/2016-10-21/,,,,,,,Operating,France,,49.6675,4.0627,,,,,,,,,,
1024185,Jussac,Solar,12.54012,Jussac,PV,,,,,,Open Power System Data,http://data.open-power-system-data.org/renewable_power_plants/2016-10-21/,,,,,,,Operating,France,,44.9952,2.41799,,,,,,,,,,
1024186,Chervey,Wind,12.5,Chervey,Onshore Wind,,,,,,Open Power System Data,http://data.open-power-system-data.org/renewable_power_plants/2016-10-21/,,,,,,,Operating,France,,48.1346,4.48994,,,,,,,,,,
1024187,Éguilly-sous-Bois,Wind,12.5,Éguilly-sous-Bois,Onshore Wind,,,,,,Open Power System Data,http://data.open-power-system-data.org/renewable_power_plants/2016-10-21/,,,,,,,Operating,France,,48.1391,4.53797,,,,,,,,,,
1024188,Barbaste,Solar,12.42661,Barbaste,PV,,,,,,Open Power System Data,http://data.open-power-system-data.org/renewable_power_plants/2016-10-21/,,,,,,,Operating,France,,44.1588,0.24472,,,,,,,,,,
1024189,Calmont,Solar,12.40834,Calmont,PV,,,,,,Open Power System Data,http://data.open-power-system-data.org/renewable_power_plants/2016-10-21/,,,,,,,Operating,France,,43.2844,1.62654,,,,,,,,,,
1024190,Bessède-de-Sault,Hydro,12.4,Bessède-de-Sault,Hydro,,,,,,Open Power System Data,http://data.open-power-system-data.org/renewable_power_plants/2016-10-21/,,,,,,,Operating,France,,42.7854,2.13721,,,,,,,,,,
1024191,Grand-Fougeray,Wind,12.4,Grand-Fougeray,Onshore Wind,,,,,,Open Power System Data,http://data.open-power-system-data.org/renewable_power_plants/2016-10-21/,,,,,,,Operating,France,,47.7339,-1.72786,,,,,,,,,,
1024192,Longeville-sur-Mer,Wind,12.35,Longeville-sur-Mer,Onshore Wind,,,,,,Open Power System Data,http://data.open-power-system-data.org/renewable_power_plants/2016-10-21/,,,,,,,Operating,France,,46.4091,-1.47719,,,,,,,,,,
1024193,Clamecy,Wind,12.336,Clamecy,Onshore Wind,,,,,,Open Power System Data,http://data.open-power-system-data.org/renewable_power_plants/2016-10-21/,,,,,,,Operating,France,,47.4613,3.51097,,,,,,,,,,
1024199,Saint-Maurice-de-Lignon,Hydro,12.3,Saint-Maurice-de-Lignon,Hydro,,,,,,Open Power System Data,http://data.open-power-system-data.org/renewable_power_plants/2016-10-21/,,,,,,,Operating,France,,45.2201,4.13476,,,,,,,,,,
1024206,Coulonges-Thouarsais,Wind,12.3,Coulonges-Thouarsais,Onshore Wind,,,,,,Open Power System Data,http://data.open-power-system-data.org/renewable_power_plants/2016-10-21/,,,,,,,Operating,France,,46.9234,-0.33293,,,,,,,,,,
1024205,La Chapelle-Gaudin,Wind,12.3,La Chapelle-Gaudin,Onshore Wind,,,,,,Open Power System Data,http://data.open-power-system-data.org/renewable_power_plants/2016-10-21/,,,,,,,Operating,France,,46.9248,-0.38594,,,,,,,,,,
1024197,Fontaine-Mâcon,Wind,12.3,Fontaine-Mâcon,Onshore Wind,,,,,,Open Power System Data,http://data.open-power-system-data.org/renewable_power_plants/2016-10-21/,,,,,,,Operating,France,,48.4581,3.50729,,,,,,,,,,
1024195,Droupt-Saint-Basle,Wind,12.3,Droupt-Saint-Basle,Onshore Wind,,,,,,Open Power System Data,http://data.open-power-system-data.org/renewable_power_plants/2016-10-21/,,,,,,,Operating,France,,48.4802,3.95709,,,,,,,,,,
1024196,Droupt-Sainte-Marie,Wind,12.3,Droupt-Sainte-Marie,Onshore Wind,,,,,,Open Power System Data,http://data.open-power-system-data.org/renewable_power_plants/2016-10-21/,,,,,,,Operating,France,,48.5017,3.93864,,,,,,,,,,
1024201,Amanty,Wind,12.3,Amanty,Onshore Wind,,,,,,Open Power System Data,http://data.open-power-system-data.org/renewable_power_plants/2016-10-21/,,,,,,,Operating,France,,48.5156,5.60502,,,,,,,,,,
1024198,Rhèges,Wind,12.3,Rhèges,Onshore Wind,,,,,,Open Power System Data,http://data.open-power-system-data.org/renewable_power_plants/2016-10-21/,,,,,,,Operating,France,,48.5322,3.99466,,,,,,,,,,
1024203,Reffroy,Wind,12.3,Reffroy,Onshore Wind,,,,,,Open Power System Data,http://data.open-power-system-data.org/renewable_power_plants/2016-10-21/,,,,,,,Operating,France,,48.6263,5.47084,,,,,,,,,,
1024202,Marson-sur-Barboure,Wind,12.3,Marson-sur-Barboure,Onshore Wind,,,,,,Open Power System Data,http://data.open-power-system-data.org/renewable_power_plants/2016-10-21/,,,,,,,Operating,France,,48.6353,5.44383,,,,,,,,,,
1024200,Les Essarts-le-Vicomte,Wind,12.3,Les Essarts-le-Vicomte,Onshore Wind,,,,,,Open Power System Data,http://data.open-power-system-data.org/renewable_power_plants/2016-10-21/,,,,,,,Operating,France,,48.6649,3.55335,,,,,,,,,,
1024194,Hautevesnes,Wind,12.3,Hautevesnes,Onshore Wind,,,,,,Open Power System Data,http://data.open-power-system-data.org/renewable_power_plants/2016-10-21/,,,,,,,Operating,France,,49.109,3.23514,,,,,,,,,,
1024207,Pertain,Wind,12.3,Pertain,Onshore Wind,,,,,,Open Power System Data,http://data.open-power-system-data.org/renewable_power_plants/2016-10-21/,,,,,,,Operating,France,,49.8059,2.86823,,,,,,,,,,
1024204,Remilly-Wirquin,Wind,12.3,Remilly-Wirquin,Onshore Wind,,,,,,Open Power System Data,http://data.open-power-system-data.org/renewable_power_plants/2016-10-21/,,,,,,,Operating,France,,50.67,2.17549,,,,,,,,,,
1024208,Figanières,Solar,12.26303,Figanières,PV,,,,,,Open Power System Data,http://data.open-power-system-data.org/renewable_power_plants/2016-10-21/,,,,,,,Operating,France,,43.5675,6.49821,,,,,,,,,,
1024210,Villeseneux,Wind,12.25,Villeseneux,Onshore Wind,,,,,,Open Power System Data,http://data.open-power-system-data.org/renewable_power_plants/2016-10-21/,,,,,,,Operating,France,,48.8443,4.14312,,,,,,,,,,
1024209,Trécon,Wind,12.25,Trécon,Onshore Wind,,,,,,Open Power System Data,http://data.open-power-system-data.org/renewable_power_plants/2016-10-21/,,,,,,,Operating,France,,48.8666,4.08764,,,,,,,,,,
1024211,Torreilles,Solar,12.19826,Torreilles,PV,,,,,,Open Power System Data,http://data.open-power-system-data.org/renewable_power_plants/2016-10-21/,,,,,,,Operating,France,,42.7538,3.00844,,,,,,,,,,
1024212,Le Castellet,Solar,12.18681,Le Castellet,PV,,,,,,Open Power System Data,http://data.open-power-system-data.org/renewable_power_plants/2016-10-21/,,,,,,,Operating,France,,43.2275,5.76572,,,,,,,,,,
1024213,Largentière,Solar,12.18548,Largentière,PV,,,,,,Open Power System Data,http://data.open-power-system-data.org/renewable_power_plants/2016-10-21/,,,,,,,Operating,France,,44.5333,4.30141,,,,,,,,,,
1024214,La Limouzinière,Wind,12.15,La Limouzinière,Onshore Wind,,,,,,Open Power System Data,http://data.open-power-system-data.org/renewable_power_plants/2016-10-21/,,,,,,,Operating,France,,46.9877,-1.64119,,,,,,,,,,
1024215,Saucats,Solar,12.14377,Saucats,PV,,,,,,Open Power System Data,http://data.open-power-system-data.org/renewable_power_plants/2016-10-21/,,,,,,,Operating,France,,44.6513,-0.63142,,,,,,,,,,
1024216,Marmanhac,Solar,12.13773,Marmanhac,PV,,,,,,Open Power System Data,http://data.open-power-system-data.org/renewable_power_plants/2016-10-21/,,,,,,,Operating,France,,45.0073,2.47834,,,,,,,,,,
1024217,Gennetines,Solar,12.12215,Gennetines,PV,,,,,,Open Power System Data,http://data.open-power-system-data.org/renewable_power_plants/2016-10-21/,,,,,,,Operating,France,,46.63,3.40503,,,,,,,,,,
1024218,Entraygues-sur-Truyère,Hydro,12.1,Entraygues-sur-Truyère,Hydro,,,,,,Open Power System Data,http://data.open-power-system-data.org/renewable_power_plants/2016-10-21/,,,,,,,Operating,France,,44.6548,2.57865,,,,,,,,,,
1024219,Cabasse,Solar,12.0952,Cabasse,PV,,,,,,Open Power System Data,http://data.open-power-system-data.org/renewable_power_plants/2016-10-21/,,,,,,,Operating,France,,43.427,6.23235,,,,,,,,,,
1024220,Diou,Solar,12.05204,Diou,PV,,,,,,Open Power System Data,http://data.open-power-system-data.org/renewable_power_plants/2016-10-21/,,,,,,,Operating,France,,46.5226,3.73611,,,,,,,,,,
1024221,Saint-Marcel-sur-Aude,Solar,12.04732,Saint-Marcel-sur-Aude,PV,,,,,,Open Power System Data,http://data.open-power-system-data.org/renewable_power_plants/2016-10-21/,,,,,,,Operating,France,,43.2518,2.92422,,,,,,,,,,
1024222,Estézargues,Solar,12.03533,Estézargues,PV,,,,,,Open Power System Data,http://data.open-power-system-data.org/renewable_power_plants/2016-10-21/,,,,,,,Operating,France,,43.9543,4.63626,,,,,,,,,,
1024223,Louvilliers-lès-Perche,Solar,12.00559,Louvilliers-lès-Perche,PV,,,,,,Open Power System Data,http://data.open-power-system-data.org/renewable_power_plants/2016-10-21/,,,,,,,Operating,France,,48.6166,1.06655,,,,,,,,,,
1024236,Cuxac-Cabardès,Wind,12,Cuxac-Cabardès,Onshore Wind,,,,,,Open Power System Data,http://data.open-power-system-data.org/renewable_power_plants/2016-10-21/,,,,,,,Operating,France,,43.3905,2.27901,,,,,,,,,,
1024353,Sauveterre,Wind,12,Sauveterre,Onshore Wind,,,,,,Open Power System Data,http://data.open-power-system-data.org/renewable_power_plants/2016-10-21/,,,,,,,Operating,France,,43.4532,2.55987,,,,,,,,,,
1024352,Lamontélarié,Wind,12,Lamontélarié,Onshore Wind,,,,,,Open Power System Data,http://data.open-power-system-data.org/renewable_power_plants/2016-10-21/,,,,,,,Operating,France,,43.6205,2.60838,,,,,,,,,,
1024351,Cuq,Wind,12,Cuq,Onshore Wind,,,,,,Open Power System Data,http://data.open-power-system-data.org/renewable_power_plants/2016-10-21/,,,,,,,Operating,France,,43.6531,2.08653,,,,,,,,,,
1024266,Morcenx,Biomass,12,Morcenx,,,,,,,Open Power System Data,http://data.open-power-system-data.org/renewable_power_plants/2016-10-21/,,,,,,,Operating,France,,44.0411,-0.88842,,,,,,,,,,
1024238,Lestrade-et-Thouels,Wind,12,Lestrade-et-Thouels,Onshore Wind,,,,,,Open Power System Data,http://data.open-power-system-data.org/renewable_power_plants/2016-10-21/,,,,,,,Operating,France,,44.0542,2.64836,,,,,,,,,,
1024237,Ayssènes,Wind,12,Ayssènes,Onshore Wind,,,,,,Open Power System Data,http://data.open-power-system-data.org/renewable_power_plants/2016-10-21/,,,,,,,Operating,France,,44.0922,2.76606,,,,,,,,,,
1024239,Pont-de-Salars,Wind,12,Pont-de-Salars,Onshore Wind,,,,,,Open Power System Data,http://data.open-power-system-data.org/renewable_power_plants/2016-10-21/,,,,,,,Operating,France,,44.2779,2.7097,,,,,,,,,,
1024240,Ségur,Wind,12,Ségur,Onshore Wind,,,,,,Open Power System Data,http://data.open-power-system-data.org/renewable_power_plants/2016-10-21/,,,,,,,Operating,France,,44.2911,2.84429,,,,,,,,,,
1024259,Pierrelatte,Biomass,12,Pierrelatte,,,,,,,Open Power System Data,http://data.open-power-system-data.org/renewable_power_plants/2016-10-21/,,,,,,,Operating,France,,44.3609,4.68719,,,,,,,,,,
1024277,Chastel-Nouvel,Wind,12,Chastel-Nouvel,Onshore Wind,,,,,,Open Power System Data,http://data.open-power-system-data.org/renewable_power_plants/2016-10-21/,,,,,,,Operating,France,,44.5707,3.49251,,,,,,,,,,
1024267,Freycenet-la-Tour,Wind,12,Freycenet-la-Tour,Onshore Wind,,,,,,Open Power System Data,http://data.open-power-system-data.org/renewable_power_plants/2016-10-21/,,,,,,,Operating,France,,44.9355,4.07068,,,,,,,,,,
1024245,Rézentières,Wind,12,Rézentières,Onshore Wind,,,,,,Open Power System Data,http://data.open-power-system-data.org/renewable_power_plants/2016-10-21/,,,,,,,Operating,France,,45.1344,3.10568,,,,,,,,,,
1024258,Beausemblant,Wind,12,Beausemblant,Onshore Wind,,,,,,Open Power System Data,http://data.open-power-system-data.org/renewable_power_plants/2016-10-21/,,,,,,,Operating,France,,45.2123,4.84,,,,,,,,,,
1024326,Saint-Gervais-les-Bains,Hydro,12,Saint-Gervais-les-Bains,Hydro,,,,,,Open Power System Data,http://data.open-power-system-data.org/renewable_power_plants/2016-10-21/,,,,,,,Operating,France,,45.857,6.74101,,,,,,,,,,
1024250,Mazeray,Wind,12,Mazeray,Onshore Wind,,,,,,Open Power System Data,http://data.open-power-system-data.org/renewable_power_plants/2016-10-21/,,,,,,,Operating,France,,45.9164,-0.56038,,,,,,,,,,
1024247,Saint-Fraigne,Wind,12,Saint-Fraigne,Onshore Wind,,,,,,Open Power System Data,http://data.open-power-system-data.org/renewable_power_plants/2016-10-21/,,,,,,,Operating,France,,45.9569,-0.01481,,,,,,,,,,
1024248,La Benâte,Wind,12,La Benâte,Onshore Wind,,,,,,Open Power System Data,http://data.open-power-system-data.org/renewable_power_plants/2016-10-21/,,,,,,,Operating,France,,46.0075,-0.55762,,,,,,,,,,
1024246,La Faye,Wind,12,La Faye,Onshore Wind,,,,,,Open Power System Data,http://data.open-power-system-data.org/renewable_power_plants/2016-10-21/,,,,,,,Operating,France,,46.0194,0.15931,,,,,,,,,,
1024251,Saint-Mandé-sur-Brédoire,Wind,12,Saint-Mandé-sur-Brédoire,Onshore Wind,,,,,,Open Power System Data,http://data.open-power-system-data.org/renewable_power_plants/2016-10-21/,,,,,,,Operating,France,,46.0371,-0.2779,,,,,,,,,,
1024249,Bernay-Saint-Martin,Wind,12,Bernay-Saint-Martin,Onshore Wind,,,,,,Open Power System Data,http://data.open-power-system-data.org/renewable_power_plants/2016-10-21/,,,,,,,Operating,France,,46.0663,-0.62588,,,,,,,,,,
1024356,Saint-Macoux,Wind,12,Saint-Macoux,Onshore Wind,,,,,,Open Power System Data,http://data.open-power-system-data.org/renewable_power_plants/2016-10-21/,,,,,,,Operating,France,,46.1184,0.22632,,,,,,,,,,
1024334,Gournay-Loizé,Wind,12,Gournay-Loizé,Onshore Wind,,,,,,Open Power System Data,http://data.open-power-system-data.org/renewable_power_plants/2016-10-21/,,,,,,,Operating,France,,46.1497,-0.04874,,,,,,,,,,
1024257,Chambonchard,Wind,12,Chambonchard,Onshore Wind,,,,,,Open Power System Data,http://data.open-power-system-data.org/renewable_power_plants/2016-10-21/,,,,,,,Operating,France,,46.161,2.54107,,,,,,,,,,
1024335,Paizay-le-Tort,Wind,12,Paizay-le-Tort,Onshore Wind,,,,,,Open Power System Data,http://data.open-power-system-data.org/renewable_power_plants/2016-10-21/,,,,,,,Operating,France,,46.1674,-0.1716,,,,,,,,,,
1024337,Saint-Martin-lès-Melle,Wind,12,Saint-Martin-lès-Melle,Onshore Wind,,,,,,Open Power System Data,http://data.open-power-system-data.org/renewable_power_plants/2016-10-21/,,,,,,,Operating,France,,46.2261,-0.1684,,,,,,,,,,
1024336,Pamproux,Wind,12,Pamproux,Onshore Wind,,,,,,Open Power System Data,http://data.open-power-system-data.org/renewable_power_plants/2016-10-21/,,,,,,,Operating,France,,46.4117,-0.04304,,,,,,,,,,
1024354,Beaufou,Wind,12,Beaufou,Onshore Wind,,,,,,Open Power System Data,http://data.open-power-system-data.org/renewable_power_plants/2016-10-21/,,,,,,,Operating,France,,46.8189,-1.52465,,,,,,,,,,
1024355,La Garnache,Wind,12,La Garnache,Onshore Wind,,,,,,Open Power System Data,http://data.open-power-system-data.org/renewable_power_plants/2016-10-21/,,,,,,,Operating,France,,46.8974,-1.8251,,,,,,,,,,
1024265,Saint-Genou,Wind,12,Saint-Genou,Onshore Wind,,,,,,Open Power System Data,http://data.open-power-system-data.org/renewable_power_plants/2016-10-21/,,,,,,,Operating,France,,46.9111,1.35107,,,,,,,,,,
1024268,Bourgneuf-en-Retz,Wind,12,Bourgneuf-en-Retz,Onshore Wind,,,,,,Open Power System Data,http://data.open-power-system-data.org/renewable_power_plants/2016-10-21/,,,,,,,Operating,France,,47.0379,-1.92607,,,,,,,,,,
1024252,Quincy,Wind,12,Quincy,Onshore Wind,,,,,,Open Power System Data,http://data.open-power-system-data.org/renewable_power_plants/2016-10-21/,,,,,,,Operating,France,,47.1302,2.15595,,,,,,,,,,
1024270,Chauvé,Wind,12,Chauvé,Onshore Wind,,,,,,Open Power System Data,http://data.open-power-system-data.org/renewable_power_plants/2016-10-21/,,,,,,,Operating,France,,47.1586,-2.01182,,,,,,,,,,
1024253,Arconcey,Wind,12,Arconcey,Onshore Wind,,,,,,Open Power System Data,http://data.open-power-system-data.org/renewable_power_plants/2016-10-21/,,,,,,,Operating,France,,47.216,4.46143,,,,,,,,,,
1024278,Valanjou,Wind,12,Valanjou,Onshore Wind,,,,,,Open Power System Data,http://data.open-power-system-data.org/renewable_power_plants/2016-10-21/,,,,,,,Operating,France,,47.2181,-0.60629,,,,,,,,,,
1024255,Vieilmoulin,Wind,12,Vieilmoulin,Onshore Wind,,,,,,Open Power System Data,http://data.open-power-system-data.org/renewable_power_plants/2016-10-21/,,,,,,,Operating,France,,47.3141,4.67236,,,,,,,,,,
1024254,Saint-Martin-du-Mont,Wind,12,Saint-Martin-du-Mont,Onshore Wind,,,,,,Open Power System Data,http://data.open-power-system-data.org/renewable_power_plants/2016-10-21/,,,,,,,Operating,France,,47.4152,4.81216,,,,,,,,,,
1024269,Campbon,Wind,12,Campbon,Onshore Wind,,,,,,Open Power System Data,http://data.open-power-system-data.org/renewable_power_plants/2016-10-21/,,,,,,,Operating,France,,47.416,-1.96704,,,,,,,,,,
1024271,Saint-Vincent-des-Landes,Wind,12,Saint-Vincent-des-Landes,Onshore Wind,,,,,,Open Power System Data,http://data.open-power-system-data.org/renewable_power_plants/2016-10-21/,,,,,,,Operating,France,,47.6556,-1.50483,,,,,,,,,,
1024288,Vesvres-sous-Chalancey,Wind,12,Vesvres-sous-Chalancey,Onshore Wind,,,,,,Open Power System Data,http://data.open-power-system-data.org/renewable_power_plants/2016-10-21/,,,,,,,Operating,France,,47.6958,5.17102,,,,,,,,,,
1024300,Les Fougerêts,Wind,12,Les Fougerêts,Onshore Wind,,,,,,Open Power System Data,http://data.open-power-system-data.org/renewable_power_plants/2016-10-21/,,,,,,,Operating,France,,47.748,-2.19754,,,,,,,,,,
1024282,Baissey,Wind,12,Baissey,Onshore Wind,,,,,,Open Power System Data,http://data.open-power-system-data.org/renewable_power_plants/2016-10-21/,,,,,,,Operating,France,,47.7486,5.24937,,,,,,,,,,
1024301,La Gacilly,Wind,12,La Gacilly,Onshore Wind,,,,,,Open Power System Data,http://data.open-power-system-data.org/renewable_power_plants/2016-10-21/,,,,,,,Operating,France,,47.7729,-2.15617,,,,,,,,,,
1024286,Orcevaux,Wind,12,Orcevaux,Onshore Wind,,,,,,Open Power System Data,http://data.open-power-system-data.org/renewable_power_plants/2016-10-21/,,,,,,,Operating,France,,47.7755,5.27029,,,,,,,,,,
1024357,Courgis,Wind,12,Courgis,Onshore Wind,,,,,,Open Power System Data,http://data.open-power-system-data.org/renewable_power_plants/2016-10-21/,,,,,,,Operating,France,,47.777,3.74412,,,,,,,,,,
1024358,Venoy,Wind,12,Venoy,Onshore Wind,,,,,,Open Power System Data,http://data.open-power-system-data.org/renewable_power_plants/2016-10-21/,,,,,,,Operating,France,,47.8052,3.65439,,,,,,,,,,
1024299,Cruguel,Wind,12,Cruguel,Onshore Wind,,,,,,Open Power System Data,http://data.open-power-system-data.org/renewable_power_plants/2016-10-21/,,,,,,,Operating,France,,47.8779,-2.5908,,,,,,,,,,
1024274,Orléans,Biomass,12,Orléans,,,,,,,Open Power System Data,http://data.open-power-system-data.org/renewable_power_plants/2016-10-21/,,,,,,,Operating,France,,47.8825,1.91661,,,,,,,,,,
1024303,Saint-Servant,Wind,12,Saint-Servant,Onshore Wind,,,,,,Open Power System Data,http://data.open-power-system-data.org/renewable_power_plants/2016-10-21/,,,,,,,Operating,France,,47.899,-2.51221,,,,,,,,,,
1024298,Campénéac,Wind,12,Campénéac,Onshore Wind,,,,,,Open Power System Data,http://data.open-power-system-data.org/renewable_power_plants/2016-10-21/,,,,,,,Operating,France,,47.9624,-2.27779,,,,,,,,,,
1024263,Plélan-le-Grand,Wind,12,Plélan-le-Grand,Onshore Wind,,,,,,Open Power System Data,http://data.open-power-system-data.org/renewable_power_plants/2016-10-21/,,,,,,,Operating,France,,47.9966,-2.07973,,,,,,,,,,
1024285,Is-en-Bassigny,Wind,12,Is-en-Bassigny,Onshore Wind,,,,,,Open Power System Data,http://data.open-power-system-data.org/renewable_power_plants/2016-10-21/,,,,,,,Operating,France,,48.0345,5.44705,,,,,,,,,,
1024275,Patay,Wind,12,Patay,Onshore Wind,,,,,,Open Power System Data,http://data.open-power-system-data.org/renewable_power_plants/2016-10-21/,,,,,,,Operating,France,,48.0509,1.6938,,,,,,,,,,
1024302,Mohon,Wind,12,Mohon,Onshore Wind,,,,,,Open Power System Data,http://data.open-power-system-data.org/renewable_power_plants/2016-10-21/,,,,,,,Operating,France,,48.0634,-2.49452,,,,,,,,,,
1024283,Biesles,Wind,12,Biesles,Onshore Wind,,,,,,Open Power System Data,http://data.open-power-system-data.org/renewable_power_plants/2016-10-21/,,,,,,,Operating,France,,48.1029,5.28617,,,,,,,,,,
1024256,Saint-Barnabé,Wind,12,Saint-Barnabé,Onshore Wind,,,,,,Open Power System Data,http://data.open-power-system-data.org/renewable_power_plants/2016-10-21/,,,,,,,Operating,France,,48.1385,-2.70181,,,,,,,,,,
1024273,Jouy-en-Pithiverais,Wind,12,Jouy-en-Pithiverais,Onshore Wind,,,,,,Open Power System Data,http://data.open-power-system-data.org/renewable_power_plants/2016-10-21/,,,,,,,Operating,France,,48.1498,2.13073,,,,,,,,,,
1024272,Bazoches-les-Gallerandes,Wind,12,Bazoches-les-Gallerandes,Onshore Wind,,,,,,Open Power System Data,http://data.open-power-system-data.org/renewable_power_plants/2016-10-21/,,,,,,,Operating,France,,48.1625,2.05138,,,,,,,,,,
1024262,Plomodiern,Wind,12,Plomodiern,Onshore Wind,,,,,,Open Power System Data,http://data.open-power-system-data.org/renewable_power_plants/2016-10-21/,,,,,,,Operating,France,,48.1809,-4.21696,,,,,,,,,,
1024260,Alluyes,Wind,12,Alluyes,Onshore Wind,,,,,,Open Power System Data,http://data.open-power-system-data.org/renewable_power_plants/2016-10-21/,,,,,,,Operating,France,,48.229,1.3648,,,,,,,,,,
1024276,Sermaises,Wind,12,Sermaises,Onshore Wind,,,,,,Open Power System Data,http://data.open-power-system-data.org/renewable_power_plants/2016-10-21/,,,,,,,Operating,France,,48.2985,2.2037,,,,,,,,,,
1024287,Rouécourt,Wind,12,Rouécourt,Onshore Wind,,,,,,Open Power System Data,http://data.open-power-system-data.org/renewable_power_plants/2016-10-21/,,,,,,,Operating,France,,48.3284,5.07528,,,,,,,,,,
1024289,La Haie-Traversaine,Wind,12,La Haie-Traversaine,Onshore Wind,,,,,,Open Power System Data,http://data.open-power-system-data.org/renewable_power_plants/2016-10-21/,,,,,,,Operating,France,,48.3589,-0.61319,,,,,,,,,,
1024231,Mergey,Wind,12,Mergey,Onshore Wind,,,,,,Open Power System Data,http://data.open-power-system-data.org/renewable_power_plants/2016-10-21/,,,,,,,Operating,France,,48.3958,4.03256,,,,,,,,,,
1024284,Ferrière-et-Lafolie,Wind,12,Ferrière-et-Lafolie,Onshore Wind,,,,,,Open Power System Data,http://data.open-power-system-data.org/renewable_power_plants/2016-10-21/,,,,,,,Operating,France,,48.399,5.07527,,,,,,,,,,
1024234,Savières,Wind,12,Savières,Onshore Wind,,,,,,Open Power System Data,http://data.open-power-system-data.org/renewable_power_plants/2016-10-21/,,,,,,,Operating,France,,48.4056,3.93408,,,,,,,,,,
1024264,Trémeheuc,Wind,12,Trémeheuc,Onshore Wind,,,,,,Open Power System Data,http://data.open-power-system-data.org/renewable_power_plants/2016-10-21/,,,,,,,Operating,France,,48.4387,-1.6977,,,,,,,,,,
1024233,Orvilliers-Saint-Julien,Wind,12,Orvilliers-Saint-Julien,Onshore Wind,,,,,,Open Power System Data,http://data.open-power-system-data.org/renewable_power_plants/2016-10-21/,,,,,,,Operating,France,,48.4388,3.82197,,,,,,,,,,
1024232,Nozay,Wind,12,Nozay,Onshore Wind,,,,,,Open Power System Data,http://data.open-power-system-data.org/renewable_power_plants/2016-10-21/,,,,,,,Operating,France,,48.5,4.08247,,,,,,,,,,
1024294,Houdelaincourt,Wind,12,Houdelaincourt,Onshore Wind,,,,,,Open Power System Data,http://data.open-power-system-data.org/renewable_power_plants/2016-10-21/,,,,,,,Operating,France,,48.5517,5.4565,,,,,,,,,,
1024290,Baudignécourt,Wind,12,Baudignécourt,Onshore Wind,,,,,,Open Power System Data,http://data.open-power-system-data.org/renewable_power_plants/2016-10-21/,,,,,,,Operating,France,,48.5653,5.45875,,,,,,,,,,
1024281,Vouarces,Wind,12,Vouarces,Onshore Wind,,,,,,Open Power System Data,http://data.open-power-system-data.org/renewable_power_plants/2016-10-21/,,,,,,,Operating,France,,48.5924,3.89114,,,,,,,,,,
1024292,Bovée-sur-Barboure,Wind,12,Bovée-sur-Barboure,Onshore Wind,,,,,,Open Power System Data,http://data.open-power-system-data.org/renewable_power_plants/2016-10-21/,,,,,,,Operating,France,,48.6371,5.50944,,,,,,,,,,
1024280,Thaas,Wind,12,Thaas,Onshore Wind,,,,,,Open Power System Data,http://data.open-power-system-data.org/renewable_power_plants/2016-10-21/,,,,,,,Operating,France,,48.6395,3.87034,,,,,,,,,,
1024295,Menaucourt,Wind,12,Menaucourt,Onshore Wind,,,,,,Open Power System Data,http://data.open-power-system-data.org/renewable_power_plants/2016-10-21/,,,,,,,Operating,France,,48.656,5.36228,,,,,,,,,,
1024261,Villemeux-sur-Eure,Wind,12,Villemeux-sur-Eure,Onshore Wind,,,,,,Open Power System Data,http://data.open-power-system-data.org/renewable_power_plants/2016-10-21/,,,,,,,Operating,France,,48.6715,1.45777,,,,,,,,,,
1024235,Semoine,Wind,12,Semoine,Onshore Wind,,,,,,Open Power System Data,http://data.open-power-system-data.org/renewable_power_plants/2016-10-21/,,,,,,,Operating,France,,48.6737,4.09363,,,,,,,,,,
1024279,Coole,Wind,12,Coole,Onshore Wind,,,,,,Open Power System Data,http://data.open-power-system-data.org/renewable_power_plants/2016-10-21/,,,,,,,Operating,France,,48.7395,4.39146,,,,,,,,,,
1024244,Rully,Wind,12,Rully,Onshore Wind,,,,,,Open Power System Data,http://data.open-power-system-data.org/renewable_power_plants/2016-10-21/,,,,,,,Operating,France,,48.829,-0.71542,,,,,,,,,,
1024304,Amelécourt,Wind,12,Amelécourt,Onshore Wind,,,,,,Open Power System Data,http://data.open-power-system-data.org/renewable_power_plants/2016-10-21/,,,,,,,Operating,France,,48.8406,6.48806,,,,,,,,,,
1024297,Raival,Wind,12,Raival,Onshore Wind,,,,,,Open Power System Data,http://data.open-power-system-data.org/renewable_power_plants/2016-10-21/,,,,,,,Operating,France,,48.8863,5.25115,,,,,,,,,,
1024293,Érize-la-Petite,Wind,12,Érize-la-Petite,Onshore Wind,,,,,,Open Power System Data,http://data.open-power-system-data.org/renewable_power_plants/2016-10-21/,,,,,,,Operating,France,,48.9145,5.23742,,,,,,,,,,
1024306,Destry,Wind,12,Destry,Onshore Wind,,,,,,Open Power System Data,http://data.open-power-system-data.org/renewable_power_plants/2016-10-21/,,,,,,,Operating,France,,48.9456,6.5856,,,,,,,,,,
1024291,Beausite,Wind,12,Beausite,Onshore Wind,,,,,,Open Power System Data,http://data.open-power-system-data.org/renewable_power_plants/2016-10-21/,,,,,,,Operating,France,,48.9673,5.21263,,,,,,,,,,
1024325,Dehlingen,Wind,12,Dehlingen,Onshore Wind,,,,,,Open Power System Data,http://data.open-power-system-data.org/renewable_power_plants/2016-10-21/,,,,,,,Operating,France,,48.9856,7.18107,,,,,,,,,,
1024243,Garcelles-Secqueville,Wind,12,Garcelles-Secqueville,Onshore Wind,,,,,,Open Power System Data,http://data.open-power-system-data.org/renewable_power_plants/2016-10-21/,,,,,,,Operating,France,,49.0965,-0.27986,,,,,,,,,,
1024305,Bambiderstroff,Wind,12,Bambiderstroff,Onshore Wind,,,,,,Open Power System Data,http://data.open-power-system-data.org/renewable_power_plants/2016-10-21/,,,,,,,Operating,France,,49.1011,6.59699,,,,,,,,,,
1024241,Chicheboville,Wind,12,Chicheboville,Onshore Wind,,,,,,Open Power System Data,http://data.open-power-system-data.org/renewable_power_plants/2016-10-21/,,,,,,,Operating,France,,49.1052,-0.21979,,,,,,,,,,
1024296,Nixéville-Blercourt,Wind,12,Nixéville-Blercourt,Onshore Wind,,,,,,Open Power System Data,http://data.open-power-system-data.org/renewable_power_plants/2016-10-21/,,,,,,,Operating,France,,49.1118,5.26198,,,,,,,,,,
1024242,Frénouville,Wind,12,Frénouville,Onshore Wind,,,,,,Open Power System Data,http://data.open-power-system-data.org/renewable_power_plants/2016-10-21/,,,,,,,Operating,France,,49.1325,-0.24829,,,,,,,,,,
1024307,Niedervisse,Wind,12,Niedervisse,Onshore Wind,,,,,,Open Power System Data,http://data.open-power-system-data.org/renewable_power_plants/2016-10-21/,,,,,,,Operating,France,,49.1625,6.5647,,,,,,,,,,
1024229,Contreuve,Wind,12,Contreuve,Onshore Wind,,,,,,Open Power System Data,http://data.open-power-system-data.org/renewable_power_plants/2016-10-21/,,,,,,,Operating,France,,49.3619,4.61554,,,,,,,,,,
1024329,Avesnes-en-Bray,Wind,12,Avesnes-en-Bray,Onshore Wind,,,,,,Open Power System Data,http://data.open-power-system-data.org/renewable_power_plants/2016-10-21/,,,,,,,Operating,France,,49.473,1.6756,,,,,,,,,,
1024318,Noyers-Saint-Martin,Wind,12,Noyers-Saint-Martin,Onshore Wind,,,,,,Open Power System Data,http://data.open-power-system-data.org/renewable_power_plants/2016-10-21/,,,,,,,Operating,France,,49.5469,2.26603,,,,,,,,,,
1024230,Raucourt-et-Flaba,Wind,12,Raucourt-et-Flaba,Onshore Wind,,,,,,Open Power System Data,http://data.open-power-system-data.org/renewable_power_plants/2016-10-21/,,,,,,,Operating,France,,49.5896,4.96227,,,,,,,,,,
1024315,Francastel,Wind,12,Francastel,Onshore Wind,,,,,,Open Power System Data,http://data.open-power-system-data.org/renewable_power_plants/2016-10-21/,,,,,,,Operating,France,,49.5899,2.14846,,,,,,,,,,
1024312,Crèvecoeur-le-Grand,Wind,12,Crèvecoeur-le-Grand,Onshore Wind,,,,,,Open Power System Data,http://data.open-power-system-data.org/renewable_power_plants/2016-10-21/,,,,,,,Operating,France,,49.6128,2.08511,,,,,,,,,,
1024316,Hétomesnil,Wind,12,Hétomesnil,Onshore Wind,,,,,,Open Power System Data,http://data.open-power-system-data.org/renewable_power_plants/2016-10-21/,,,,,,,Operating,France,,49.6316,2.0404,,,,,,,,,,
1024311,Breteuil,Wind,12,Breteuil,Onshore Wind,,,,,,Open Power System Data,http://data.open-power-system-data.org/renewable_power_plants/2016-10-21/,,,,,,,Operating,France,,49.634,2.29206,,,,,,,,,,
1024314,Esquennoy,Wind,12,Esquennoy,Onshore Wind,,,,,,Open Power System Data,http://data.open-power-system-data.org/renewable_power_plants/2016-10-21/,,,,,,,Operating,France,,49.6549,2.26976,,,,,,,,,,
1024310,Bonneuil-les-Eaux,Wind,12,Bonneuil-les-Eaux,Onshore Wind,,,,,,Open Power System Data,http://data.open-power-system-data.org/renewable_power_plants/2016-10-21/,,,,,,,Operating,France,,49.6805,2.24352,,,,,,,,,,
1024313,Dargies,Wind,12,Dargies,Onshore Wind,,,,,,Open Power System Data,http://data.open-power-system-data.org/renewable_power_plants/2016-10-21/,,,,,,,Operating,France,,49.6988,1.98139,,,,,,,,,,
1024317,Lannoy-Cuillère,Wind,12,Lannoy-Cuillère,Onshore Wind,,,,,,Open Power System Data,http://data.open-power-system-data.org/renewable_power_plants/2016-10-21/,,,,,,,Operating,France,,49.7089,1.73613,,,,,,,,,,
1024224,La Neuville-Bosmont,Wind,12,La Neuville-Bosmont,Onshore Wind,,,,,,Open Power System Data,http://data.open-power-system-data.org/renewable_power_plants/2016-10-21/,,,,,,,Operating,France,,49.7149,3.83325,,,,,,,,,,
1024331,Ronchois,Wind,12,Ronchois,Onshore Wind,,,,,,Open Power System Data,http://data.open-power-system-data.org/renewable_power_plants/2016-10-21/,,,,,,,Operating,France,,49.724,1.6232,,,,,,,,,,
1024332,Saint-Pierre-Bénouville,Wind,12,Saint-Pierre-Bénouville,Onshore Wind,,,,,,Open Power System Data,http://data.open-power-system-data.org/renewable_power_plants/2016-10-21/,,,,,,,Operating,France,,49.7377,0.97445,,,,,,,,,,
1024327,Ardouval,Wind,12,Ardouval,Onshore Wind,,,,,,Open Power System Data,http://data.open-power-system-data.org/renewable_power_plants/2016-10-21/,,,,,,,Operating,France,,49.7414,1.27234,,,,,,,,,,
1024342,Hangest-en-Santerre,Wind,12,Hangest-en-Santerre,Onshore Wind,,,,,,Open Power System Data,http://data.open-power-system-data.org/renewable_power_plants/2016-10-21/,,,,,,,Operating,France,,49.7517,2.60202,,,,,,,,,,
1024346,Oresmaux,Wind,12,Oresmaux,Onshore Wind,,,,,,Open Power System Data,http://data.open-power-system-data.org/renewable_power_plants/2016-10-21/,,,,,,,Operating,France,,49.7662,2.26906,,,,,,,,,,
1024345,Morvillers-Saint-Saturnin,Wind,12,Morvillers-Saint-Saturnin,Onshore Wind,,,,,,Open Power System Data,http://data.open-power-system-data.org/renewable_power_plants/2016-10-21/,,,,,,,Operating,France,,49.7785,1.81537,,,,,,,,,,
1024339,Caix,Wind,12,Caix,Onshore Wind,,,,,,Open Power System Data,http://data.open-power-system-data.org/renewable_power_plants/2016-10-21/,,,,,,,Operating,France,,49.8105,2.64533,,,,,,,,,,
1024330,Brachy,Wind,12,Brachy,Onshore Wind,,,,,,Open Power System Data,http://data.open-power-system-data.org/renewable_power_plants/2016-10-21/,,,,,,,Operating,France,,49.8161,0.94906,,,,,,,,,,
1024343,Lafresguimont-Saint-Martin,Wind,12,Lafresguimont-Saint-Martin,Onshore Wind,,,,,,Open Power System Data,http://data.open-power-system-data.org/renewable_power_plants/2016-10-21/,,,,,,,Operating,France,,49.8228,1.81012,,,,,,,,,,
1024333,Saint-Pierre-le-Viger,Wind,12,Saint-Pierre-le-Viger,Onshore Wind,,,,,,Open Power System Data,http://data.open-power-system-data.org/renewable_power_plants/2016-10-21/,,,,,,,Operating,France,,49.8261,0.85016,,,,,,,,,,
1024344,Lihons,Wind,12,Lihons,Onshore Wind,,,,,,Open Power System Data,http://data.open-power-system-data.org/renewable_power_plants/2016-10-21/,,,,,,,Operating,France,,49.8284,2.75553,,,,,,,,,,
1024350,Vauvillers,Wind,12,Vauvillers,Onshore Wind,,,,,,Open Power System Data,http://data.open-power-system-data.org/renewable_power_plants/2016-10-21/,,,,,,,Operating,France,,49.8429,2.70662,,,,,,,,,,
1024341,Framerville-Rainecourt,Wind,12,Framerville-Rainecourt,Onshore Wind,,,,,,Open Power System Data,http://data.open-power-system-data.org/renewable_power_plants/2016-10-21/,,,,,,,Operating,France,,49.8633,2.7201,,,,,,,,,,
1024226,Omissy,Wind,12,Omissy,Onshore Wind,,,,,,Open Power System Data,http://data.open-power-system-data.org/renewable_power_plants/2016-10-21/,,,,,,,Operating,France,,49.881,3.29835,,,,,,,,,,
1024225,Noyales,Wind,12,Noyales,Onshore Wind,,,,,,Open Power System Data,http://data.open-power-system-data.org/renewable_power_plants/2016-10-21/,,,,,,,Operating,France,,49.9074,3.53929,,,,,,,,,,
1024227,Pontruet,Wind,12,Pontruet,Onshore Wind,,,,,,Open Power System Data,http://data.open-power-system-data.org/renewable_power_plants/2016-10-21/,,,,,,,Operating,France,,49.9149,3.22942,,,,,,,,,,
1024348,Rambures,Wind,12,Rambures,Onshore Wind,,,,,,Open Power System Data,http://data.open-power-system-data.org/renewable_power_plants/2016-10-21/,,,,,,,Operating,France,,49.9412,1.69541,,,,,,,,,,
1024338,Airaines,Wind,12,Airaines,Onshore Wind,,,,,,Open Power System Data,http://data.open-power-system-data.org/renewable_power_plants/2016-10-21/,,,,,,,Operating,France,,49.972,1.94492,,,,,,,,,,
1024328,Assigny,Wind,12,Assigny,Onshore Wind,,,,,,Open Power System Data,http://data.open-power-system-data.org/renewable_power_plants/2016-10-21/,,,,,,,Operating,France,,49.9828,1.28703,,,,,,,,,,
1024228,Vaux-Andigny,Wind,12,Vaux-Andigny,Onshore Wind,,,,,,Open Power System Data,http://data.open-power-system-data.org/renewable_power_plants/2016-10-21/,,,,,,,Operating,France,,50.0109,3.52332,,,,,,,,,,
1024340,Cocquerel,Wind,12,Cocquerel,Onshore Wind,,,,,,Open Power System Data,http://data.open-power-system-data.org/renewable_power_plants/2016-10-21/,,,,,,,Operating,France,,50.0554,1.96037,,,,,,,,,,
1024349,Saint-Léger-lès-Domart,Wind,12,Saint-Léger-lès-Domart,Onshore Wind,,,,,,Open Power System Data,http://data.open-power-system-data.org/renewable_power_plants/2016-10-21/,,,,,,,Operating,France,,50.056,2.14068,,,,,,,,,,
1024347,Pont-Remy,Wind,12,Pont-Remy,Onshore Wind,,,,,,Open Power System Data,http://data.open-power-system-data.org/renewable_power_plants/2016-10-21/,,,,,,,Operating,France,,50.0622,1.91427,,,,,,,,,,
1024319,Hendecourt-lès-Cagnicourt,Wind,12,Hendecourt-lès-Cagnicourt,Onshore Wind,,,,,,Open Power System Data,http://data.open-power-system-data.org/renewable_power_plants/2016-10-21/,,,,,,,Operating,France,,50.2148,2.94896,,,,,,,,,,
1024324,Le Souich,Wind,12,Le Souich,Onshore Wind,,,,,,Open Power System Data,http://data.open-power-system-data.org/renewable_power_plants/2016-10-21/,,,,,,,Operating,France,,50.2225,2.36149,,,,,,,,,,
1024321,Ivergny,Wind,12,Ivergny,Onshore Wind,,,,,,Open Power System Data,http://data.open-power-system-data.org/renewable_power_plants/2016-10-21/,,,,,,,Operating,France,,50.2377,2.37936,,,,,,,,,,
1024322,Maizières,Wind,12,Maizières,Onshore Wind,,,,,,Open Power System Data,http://data.open-power-system-data.org/renewable_power_plants/2016-10-21/,,,,,,,Operating,France,,50.3216,2.44205,,,,,,,,,,
1024323,Mouriez,Wind,12,Mouriez,Onshore Wind,,,,,,Open Power System Data,http://data.open-power-system-data.org/renewable_power_plants/2016-10-21/,,,,,,,Operating,France,,50.3471,1.95493,,,,,,,,,,
1024308,Lauwin-Planque,Wind,12,Lauwin-Planque,Onshore Wind,,,,,,Open Power System Data,http://data.open-power-system-data.org/renewable_power_plants/2016-10-21/,,,,,,,Operating,France,,50.3928,3.02962,,,,,,,,,,
1024320,Herly,Wind,12,Herly,Onshore Wind,,,,,,Open Power System Data,http://data.open-power-system-data.org/renewable_power_plants/2016-10-21/,,,,,,,Operating,France,,50.5411,1.99055,,,,,,,,,,
1024309,Loon-Plage,Wind,12,Loon-Plage,Onshore Wind,,,,,,Open Power System Data,http://data.open-power-system-data.org/renewable_power_plants/2016-10-21/,,,,,,,Operating,France,,51.0011,2.22286,,,,,,,,,,
1024359,Fontenet,Solar,11.98302,Fontenet,PV,,,,,,Open Power System Data,http://data.open-power-system-data.org/renewable_power_plants/2016-10-21/,,,,,,,Operating,France,,45.9054,-0.46362,,,,,,,,,,
1024360,Dio-et-Valquières,Wind,11.97,Dio-et-Valquières,Onshore Wind,,,,,,Open Power System Data,http://data.open-power-system-data.org/renewable_power_plants/2016-10-21/,,,,,,,Operating,France,,43.6688,3.22116,,,,,,,,,,
1024361,Maubeuge,Solar,11.91246,Maubeuge,PV,,,,,,Open Power System Data,http://data.open-power-system-data.org/renewable_power_plants/2016-10-21/,,,,,,,Operating,France,,50.2844,3.96275,,,,,,,,,,
1024362,Cuincy,Solar,11.91035,Cuincy,PV,,,,,,Open Power System Data,http://data.open-power-system-data.org/renewable_power_plants/2016-10-21/,,,,,,,Operating,France,,50.3739,3.03451,,,,,,,,,,
1024363,Binas,Wind,11.9,Binas,Onshore Wind,,,,,,Open Power System Data,http://data.open-power-system-data.org/renewable_power_plants/2016-10-21/,,,,,,,Operating,France,,47.9065,1.46547,,,,,,,,,,
1024364,Bassu,Wind,11.9,Bassu,Onshore Wind,,,,,,Open Power System Data,http://data.open-power-system-data.org/renewable_power_plants/2016-10-21/,,,,,,,Operating,France,,48.8343,4.69311,,,,,,,,,,
1024366,Fresnes-en-Saulnois,Wind,11.9,Fresnes-en-Saulnois,Onshore Wind,,,,,,Open Power System Data,http://data.open-power-system-data.org/renewable_power_plants/2016-10-21/,,,,,,,Operating,France,,48.839,6.43934,,,,,,,,,,
1024365,Noirlieu,Wind,11.9,Noirlieu,Onshore Wind,,,,,,Open Power System Data,http://data.open-power-system-data.org/renewable_power_plants/2016-10-21/,,,,,,,Operating,France,,48.9397,4.80476,,,,,,,,,,
1024367,Varages,Solar,11.8732,Varages,PV,,,,,,Open Power System Data,http://data.open-power-system-data.org/renewable_power_plants/2016-10-21/,,,,,,,Operating,France,,43.5962,5.94508,,,,,,,,,,
1024368,Le Barp,Solar,11.83773,Le Barp,PV,,,,,,Open Power System Data,http://data.open-power-system-data.org/renewable_power_plants/2016-10-21/,,,,,,,Operating,France,,44.6267,-0.7468,,,,,,,,,,
1024369,Sainte-Marie-de-Cuines,Hydro,11.8,Sainte-Marie-de-Cuines,Hydro,,,,,,Open Power System Data,http://data.open-power-system-data.org/renewable_power_plants/2016-10-21/,,,,,,,Operating,France,,45.3191,6.29422,,,,,,,,,,
1024370,Durance,Solar,11.78586,Durance,PV,,,,,,Open Power System Data,http://data.open-power-system-data.org/renewable_power_plants/2016-10-21/,,,,,,,Operating,France,,44.1574,0.16336,,,,,,,,,,
1024371,Portel-des-Corbières,Wind,11.775,Portel-des-Corbières,Onshore Wind,,,,,,Open Power System Data,http://data.open-power-system-data.org/renewable_power_plants/2016-10-21/,,,,,,,Operating,France,,43.0519,2.90619,,,,,,,,,,
1024372,Avignon,Solar,11.74147,Avignon,PV,,,,,,Open Power System Data,http://data.open-power-system-data.org/renewable_power_plants/2016-10-21/,,,,,,,Operating,France,,43.9353,4.84132,,,,,,,,,,
1024373,Tuchan,Wind,11.7,Tuchan,Onshore Wind,,,,,,Open Power System Data,http://data.open-power-system-data.org/renewable_power_plants/2016-10-21/,,,,,,,Operating,France,,42.9063,2.72783,,,,,,,,,,
1024374,Sausheim,Biomass,11.7,Sausheim,,,,,,,Open Power System Data,http://data.open-power-system-data.org/renewable_power_plants/2016-10-21/,,,,,,,Operating,France,,47.7822,7.40027,,,,,,,,,,
1024375,La Fage-Montivernoux,Wind,11.69,La Fage-Montivernoux,Onshore Wind,,,,,,Open Power System Data,http://data.open-power-system-data.org/renewable_power_plants/2016-10-21/,,,,,,,Operating,France,,44.7471,3.1517,,,,,,,,,,
1024376,Albaret-le-Comtal,Hydro,11.68,Albaret-le-Comtal,Hydro,,,,,,Open Power System Data,http://data.open-power-system-data.org/renewable_power_plants/2016-10-21/,,,,,,,Operating,France,,44.8674,3.14418,,,,,,,,,,
1024377,Le Havre,Solar,11.65028,Le Havre,PV,,,,,,Open Power System Data,http://data.open-power-system-data.org/renewable_power_plants/2016-10-21/,,,,,,,Operating,France,,49.4966,0.14027,,,,,,,,,,
1024378,Avrieux,Hydro,11.6,Avrieux,Hydro,,,,,,Open Power System Data,http://data.open-power-system-data.org/renewable_power_plants/2016-10-21/,,,,,,,Operating,France,,45.1776,6.74658,,,,,,,,,,
1024379,Magescq,Solar,11.54946,Magescq,PV,,,,,,Open Power System Data,http://data.open-power-system-data.org/renewable_power_plants/2016-10-21/,,,,,,,Operating,France,,43.7735,-1.19953,,,,,,,,,,
1024380,Saint-Thibault-des-Vignes,Biomass,11.52,Saint-Thibault-des-Vignes,,,,,,,Open Power System Data,http://data.open-power-system-data.org/renewable_power_plants/2016-10-21/,,,,,,,Operating,France,,48.8642,2.67662,,,,,,,,,,
1024382,Cruscades,Wind,11.5,Cruscades,Onshore Wind,,,,,,Open Power System Data,http://data.open-power-system-data.org/renewable_power_plants/2016-10-21/,,,,,,,Operating,France,,43.2,2.81643,,,,,,,,,,
1024381,Canet,Wind,11.5,Canet,Onshore Wind,,,,,,Open Power System Data,http://data.open-power-system-data.org/renewable_power_plants/2016-10-21/,,,,,,,Operating,France,,43.2264,2.8311,,,,,,,,,,
1024385,Beaucaire,Wind,11.5,Beaucaire,Onshore Wind,,,,,,Open Power System Data,http://data.open-power-system-data.org/renewable_power_plants/2016-10-21/,,,,,,,Operating,France,,43.7797,4.59378,,,,,,,,,,
1024388,Sarrazac,Solar,11.5,Sarrazac,PV,,,,,,Open Power System Data,http://data.open-power-system-data.org/renewable_power_plants/2016-10-21/,,,,,,,Operating,France,,45.0172,1.57951,,,,,,,,,,
1024406,Falleron,Wind,11.5,Falleron,Onshore Wind,,,,,,Open Power System Data,http://data.open-power-system-data.org/renewable_power_plants/2016-10-21/,,,,,,,Operating,France,,46.8626,-1.70075,,,,,,,,,,
1024387,Erbray,Wind,11.5,Erbray,Onshore Wind,,,,,,Open Power System Data,http://data.open-power-system-data.org/renewable_power_plants/2016-10-21/,,,,,,,Operating,France,,47.6693,-1.3217,,,,,,,,,,
1024386,Retiers,Wind,11.5,Retiers,Onshore Wind,,,,,,Open Power System Data,http://data.open-power-system-data.org/renewable_power_plants/2016-10-21/,,,,,,,Operating,France,,47.9058,-1.34359,,,,,,,,,,
1024384,Scaër,Wind,11.5,Scaër,Onshore Wind,,,,,,Open Power System Data,http://data.open-power-system-data.org/renewable_power_plants/2016-10-21/,,,,,,,Operating,France,,48.0279,-3.73036,,,,,,,,,,
1024383,Beauvilliers,Wind,11.5,Beauvilliers,Onshore Wind,,,,,,Open Power System Data,http://data.open-power-system-data.org/renewable_power_plants/2016-10-21/,,,,,,,Operating,France,,48.3004,1.65478,,,,,,,,,,
1024391,Laneuville-au-Rupt,Wind,11.5,Laneuville-au-Rupt,Onshore Wind,,,,,,Open Power System Data,http://data.open-power-system-data.org/renewable_power_plants/2016-10-21/,,,,,,,Operating,France,,48.7072,5.57624,,,,,,,,,,
1024392,Naives-Rosières,Wind,11.5,Naives-Rosières,Onshore Wind,,,,,,Open Power System Data,http://data.open-power-system-data.org/renewable_power_plants/2016-10-21/,,,,,,,Operating,France,,48.8005,5.2285,,,,,,,,,,
1024390,Érize-Saint-Dizier,Wind,11.5,Érize-Saint-Dizier,Onshore Wind,,,,,,Open Power System Data,http://data.open-power-system-data.org/renewable_power_plants/2016-10-21/,,,,,,,Operating,France,,48.8107,5.28329,,,,,,,,,,
1024394,Momerstroff,Wind,11.5,Momerstroff,Onshore Wind,,,,,,Open Power System Data,http://data.open-power-system-data.org/renewable_power_plants/2016-10-21/,,,,,,,Operating,France,,49.1552,6.53306,,,,,,,,,,
1024389,Baudreville,Wind,11.5,Baudreville,Onshore Wind,,,,,,Open Power System Data,http://data.open-power-system-data.org/renewable_power_plants/2016-10-21/,,,,,,,Operating,France,,49.3086,-1.62443,,,,,,,,,,
1024393,Stenay,Wind,11.5,Stenay,Onshore Wind,,,,,,Open Power System Data,http://data.open-power-system-data.org/renewable_power_plants/2016-10-21/,,,,,,,Operating,France,,49.5005,5.1981,,,,,,,,,,
1024397,Quinquempoix,Wind,11.5,Quinquempoix,Onshore Wind,,,,,,Open Power System Data,http://data.open-power-system-data.org/renewable_power_plants/2016-10-21/,,,,,,,Operating,France,,49.5472,2.41891,,,,,,,,,,
1024395,Ansauvillers,Wind,11.5,Ansauvillers,Onshore Wind,,,,,,Open Power System Data,http://data.open-power-system-data.org/renewable_power_plants/2016-10-21/,,,,,,,Operating,France,,49.567,2.38735,,,,,,,,,,
1024398,Saint-André-Farivillers,Wind,11.5,Saint-André-Farivillers,Onshore Wind,,,,,,Open Power System Data,http://data.open-power-system-data.org/renewable_power_plants/2016-10-21/,,,,,,,Operating,France,,49.5819,2.30008,,,,,,,,,,
1024396,Bonvillers,Wind,11.5,Bonvillers,Onshore Wind,,,,,,Open Power System Data,http://data.open-power-system-data.org/renewable_power_plants/2016-10-21/,,,,,,,Operating,France,,49.5854,2.35166,,,,,,,,,,
1024405,Moyencourt-lès-Poix,Wind,11.5,Moyencourt-lès-Poix,Onshore Wind,,,,,,Open Power System Data,http://data.open-power-system-data.org/renewable_power_plants/2016-10-21/,,,,,,,Operating,France,,49.7914,2.04085,,,,,,,,,,
1024402,Guerville,Wind,11.5,Guerville,Onshore Wind,,,,,,Open Power System Data,http://data.open-power-system-data.org/renewable_power_plants/2016-10-21/,,,,,,,Operating,France,,49.9524,1.52587,,,,,,,,,,
1024404,Gamaches,Wind,11.5,Gamaches,Onshore Wind,,,,,,Open Power System Data,http://data.open-power-system-data.org/renewable_power_plants/2016-10-21/,,,,,,,Operating,France,,49.9949,1.55684,,,,,,,,,,
1024403,Brailly-Cornehotte,Wind,11.5,Brailly-Cornehotte,Onshore Wind,,,,,,Open Power System Data,http://data.open-power-system-data.org/renewable_power_plants/2016-10-21/,,,,,,,Operating,France,,50.2242,1.95794,,,,,,,,,,
1024401,Ligny-Saint-Flochel,Wind,11.5,Ligny-Saint-Flochel,Onshore Wind,,,,,,Open Power System Data,http://data.open-power-system-data.org/renewable_power_plants/2016-10-21/,,,,,,,Operating,France,,50.3595,2.42338,,,,,,,,,,
1024400,Hermin,Wind,11.5,Hermin,Onshore Wind,,,,,,Open Power System Data,http://data.open-power-system-data.org/renewable_power_plants/2016-10-21/,,,,,,,Operating,France,,50.4141,2.55291,,,,,,,,,,
1024399,Fiennes,Wind,11.5,Fiennes,Onshore Wind,,,,,,Open Power System Data,http://data.open-power-system-data.org/renewable_power_plants/2016-10-21/,,,,,,,Operating,France,,50.8239,1.83002,,,,,,,,,,
1024407,Saint-Barthélemy-de-Séchilienne,Hydro,11.499,Saint-Barthélemy-de-Séchilienne,Hydro,,,,,,Open Power System Data,http://data.open-power-system-data.org/renewable_power_plants/2016-10-21/,,,,,,,Operating,France,,45.0397,5.82207,,,,,,,,,,
1024408,Antibes,Biomass,11.44,Antibes,,,,,,,Open Power System Data,http://data.open-power-system-data.org/renewable_power_plants/2016-10-21/,,,,,,,Operating,France,,43.5876,7.10541,,,,,,,,,,
1024409,Saint-Louis,Solar,11.43472,Saint-Louis,PV,,,,,,Open Power System Data,http://data.open-power-system-data.org/renewable_power_plants/2016-10-21/,,,,,,,Operating,France,,-21.235509,55.575015,,,,,,,,,,
1024411,Damery,Wind,11.4,Damery,Onshore Wind,,,,,,Open Power System Data,http://data.open-power-system-data.org/renewable_power_plants/2016-10-21/,,,,,,,Operating,France,,49.7306,2.7362,,,,,,,,,,
1024410,Fortel-en-Artois,Wind,11.4,Fortel-en-Artois,Onshore Wind,,,,,,Open Power System Data,http://data.open-power-system-data.org/renewable_power_plants/2016-10-21/,,,,,,,Operating,France,,50.2575,2.22964,,,,,,,,,,
1024412,Nîmes,Biomass,11.382,Nîmes,,,,,,,Open Power System Data,http://data.open-power-system-data.org/renewable_power_plants/2016-10-21/,,,,,,,Operating,France,,43.8445,4.3476,,,,,,,,,,
1024413,Arpajon-sur-Cère,Solar,11.27645,Arpajon-sur-Cère,PV,,,,,,Open Power System Data,http://data.open-power-system-data.org/renewable_power_plants/2016-10-21/,,,,,,,Operating,France,,44.8759,2.46469,,,,,,,,,,
